site_id,visit_no,date_col,lon_dd,lat_dd,st,cntyname,ptl,ntl,chla,secchi
NLA06608-0001,1,2007-07-31,-114.0218399,48.97902855,MT,GLACIER,6,151,0.24,6.4
NLA06608-0002,1,2007-06-14,-79.98379054,33.03606404,SC,BERKELEY,36,695,3.84,0.55
NLA06608-0002,2,2007-07-23,-79.98379054,33.03606404,SC,BERKELEY,22,469,20.88,0.45
NLA06608-0003,1,2007-08-29,-97.85986605,28.04774206,TX,SAN PATRICIO,43,738,16.96,0.71
NLA06608-0003,2,2007-09-06,-97.85986605,28.04774206,TX,SAN PATRICIO,50,843,12.86,0.49
NLA06608-0004,1,2007-07-10,-108.4045832,37.41662013,CO,MONTEZUMA,18,344,4.6,1.8
NLA06608-0004,2,2007-09-11,-108.4045832,37.41662013,CO,MONTEZUMA,46,596,14.72,1
NLA06608-0005,1,2007-07-18,-114.8403862,43.92920926,ID,BLAINE,4,85,1.21,NA
NLA06608-0005,2,2007-08-22,-114.8403862,43.92920926,ID,BLAINE,3,68,0.4,NA
NLA06608-0006,1,2007-07-17,-73.1465177,41.68314624,CT,LITCHFIELD,7,184,4.08,3.21
NLA06608-0006,2,2007-08-30,-73.1465177,41.68314624,CT,LITCHFIELD,4,223,3.22,4.1
NLA06608-0007,1,2007-07-24,-92.04001797,45.58064546,WI,BARRON,8,493,2.43,3.15
NLA06608-0007,2,2007-09-06,-92.04001797,45.58064546,WI,BARRON,7,523,4.09,3.35
NLA06608-0008,1,2007-07-12,-93.59040488,41.29211104,IA,WARREN,66,801,30.24,0.79
NLA06608-0008,2,2007-08-22,-93.59040488,41.29211104,IA,WARREN,79,1525,148.2,0.41
NLA06608-0010,1,2007-07-17,-83.50588771,42.61823014,MI,OAKLAND,10,473,4.38,4.48
NLA06608-0010,2,2007-08-18,-83.50588771,42.61823014,MI,OAKLAND,10,485,3.33,2.6
NLA06608-0012,1,2007-06-13,-96.87178731,35.99078823,OK,PAYNE,159,1026,4.9,0.31
NLA06608-0012,2,2007-09-18,-96.87178731,35.99078823,OK,PAYNE,142,1052,21.28,0.27
NLA06608-0013,1,2007-09-04,-74.56255123,39.97428032,NJ,BURLINGTON,28,384,16.03,0.65
NLA06608-0013,2,2007-09-14,-74.56255123,39.97428032,NJ,BURLINGTON,20,264,8.8,1.05
NLA06608-0014,1,2007-08-06,-100.5756807,47.83492738,ND,SHERIDAN,175,4147,8.75,0.85
NLA06608-0014,2,2007-08-23,-100.5756807,47.83492738,ND,SHERIDAN,175,4456,20.52,0.63
NLA06608-0015,1,2007-07-10,-107.2747938,33.0071076,NM,SIERRA,109,470,20,0.37
NLA06608-0015,2,2007-08-29,-107.2747938,33.0071076,NM,SIERRA,98,423,13.65,0.38
NLA06608-0016,1,2007-06-27,-100.7797567,41.03025217,NE,LINCOLN,6,490,13,0.54
NLA06608-0016,2,2007-07-11,-100.7797567,41.03025217,NE,LINCOLN,39,704,16.64,0.5
NLA06608-0019,1,2007-06-11,-99.51185877,46.36688788,ND,LOGAN,801,7047,4.03,0.35
NLA06608-0019,2,2007-08-07,-99.51185877,46.36688788,ND,LOGAN,1376,6578,44.26,0.55
NLA06608-0020,1,2007-06-11,-87.81380832,39.40817838,IL,CLARK,30,605,20.24,0.69
NLA06608-0020,2,2007-07-02,-87.81380832,39.40817838,IL,CLARK,20,466,13.03,1.07
NLA06608-0021,1,2007-07-27,-77.3095481,42.77191973,NY,ONTARIO,7,390,2.29,7.1
NLA06608-0021,2,2007-08-30,-77.3095481,42.77191973,NY,ONTARIO,11,463,3.95,4.75
NLA06608-0023,1,2007-08-09,-97.745332,31.14849172,TX,BELL,12,349,2.78,0.95
NLA06608-0023,2,2007-09-19,-97.745332,31.14849172,TX,BELL,24,562,2.82,1.3
NLA06608-0024,1,2007-07-11,-95.48843409,32.1220497,TX,SMITH,35,860,44.15,0.9
NLA06608-0024,2,2007-08-14,-95.48843409,32.1220497,TX,SMITH,29,943,25.4,1.08
NLA06608-0025,1,2007-06-18,-81.34573084,35.20132137,NC,CLEVELAND,10,195,1.3,3.55
NLA06608-0025,2,2007-07-18,-81.34573084,35.20132137,NC,CLEVELAND,4,97,1.83,3.45
NLA06608-0029,1,2007-07-02,-75.21503793,38.75601051,DE,SUSSEX,247,2106,123.12,0.27
NLA06608-0029,2,2007-09-11,-75.21503793,38.75601051,DE,SUSSEX,162,2146,106.8,0.25
NLA06608-0031,1,2007-06-13,-81.51745185,39.77645357,OH,NOBLE,32,428,5.26,0.98
NLA06608-0031,2,2007-09-05,-81.51745185,39.77645357,OH,NOBLE,24,394,8.5,0.9
NLA06608-0033,1,2007-07-17,-121.2990598,47.31108363,WA,KITTITAS,67,835,8.92,0.7
NLA06608-0033,2,2007-08-28,-121.2990598,47.31108363,WA,KITTITAS,32,440,4.84,0.95
NLA06608-0036,1,2007-07-12,-88.32737922,37.47735404,IL,HARDIN,8,178,5.07,2.23
NLA06608-0036,2,2007-07-16,-88.32737922,37.47735404,IL,HARDIN,9,241,3.02,2.67
NLA06608-0037,1,2007-07-13,-73.36398551,41.69699293,CT,LITCHFIELD,14,239,8.02,2.9
NLA06608-0037,2,2007-09-05,-73.36398551,41.69699293,CT,LITCHFIELD,14,338,5.26,4.1
NLA06608-0038,1,2007-07-12,-71.86971736,44.79759122,VT,ESSEX,4,158,4.33,4.45
NLA06608-0038,2,2007-08-27,-71.86971736,44.79759122,VT,ESSEX,3,113,2.07,5.95
NLA06608-0041,1,2007-06-12,-80.85405519,38.22694093,WV,NICHOLAS,1,476,0.88,9.48
NLA06608-0041,2,2007-07-11,-80.85405519,38.22694093,WV,NICHOLAS,1,370,1.14,7.15
NLA06608-0042,1,2007-06-22,-107.0403753,44.45823517,WY,JOHNSON,15,213,2.21,3.38
NLA06608-0042,2,2007-07-06,-107.0403753,44.45823517,WY,JOHNSON,5,147,1.28,4.8
NLA06608-0043,1,2007-07-31,-85.44424168,41.553395,IN,LAGRANGE,9,645,5.41,1.85
NLA06608-0043,2,2007-08-15,-85.44424168,41.553395,IN,LAGRANGE,11,714,5.32,1.45
NLA06608-0044,1,2007-07-18,-101.7024805,42.4048448,NE,CHERRY,601,4108,135.61,0.12
NLA06608-0044,2,2007-07-30,-101.7024805,42.4048448,NE,CHERRY,523,6741,130.4,0.1
NLA06608-0045,1,2007-06-26,-77.88986113,37.29320486,VA,AMELIA,54,648,20.16,0.86
NLA06608-0045,2,2007-08-02,-77.88986113,37.29320486,VA,AMELIA,60,430,21.12,0.96
NLA06608-0048,1,2007-08-02,-89.17572548,36.7872968,MO,MISSISSIPPI,111,773,54,0.28
NLA06608-0048,2,2007-09-18,-89.17572548,36.7872968,MO,MISSISSIPPI,84,1004,22.69,0.48
NLA06608-0049,1,2007-08-15,-117.1533553,45.06232667,OR,BAKER,15,256,1.14,2.53
NLA06608-0050,1,2007-07-02,-71.80868659,43.44601793,NH,MERRIMACK,16,303,3.95,1.5
NLA06608-0050,2,2007-08-30,-71.80868659,43.44601793,NH,MERRIMACK,18,399,10.08,1.1
NLA06608-0053,1,2007-08-23,-73.43960723,43.55819295,NY,ESSEX,29,246,6.26,0.85
NLA06608-0053,2,2007-09-27,-73.43960723,43.55819295,NY,ESSEX,19,275,5.01,1.05
NLA06608-0057,1,2007-06-16,-80.51686138,34.96189211,NC,UNION,218,1756,125.4,0.5
NLA06608-0057,2,2007-07-14,-80.51686138,34.96189211,NC,UNION,212,939,70.8,0.35
NLA06608-0061,1,2007-06-12,-113.5793644,34.24558153,AZ,MOHAVE,19,481,3.5,2
NLA06608-0061,2,2007-08-22,-113.5793644,34.24558153,AZ,MOHAVE,16,562,9.65,1.63
NLA06608-0062,1,2007-08-09,-99.74629427,47.32067994,ND,KIDDER,152,2834,2.18,1.16
NLA06608-0062,2,2007-08-27,-99.74629427,47.32067994,ND,KIDDER,120,2813,58.8,2
NLA06608-0064,1,2007-06-18,-112.1680165,48.8940613,MT,TOOLE,2047,3366,19.04,0.46
NLA06608-0064,2,2007-08-26,-112.1680165,48.8940613,MT,TOOLE,1331,3663,13.79,0.28
NLA06608-0065,1,2007-07-17,-115.116608,48.96243381,MT,LINCOLN,1,71,0.57,7.02
NLA06608-0065,2,2007-09-12,-115.116608,48.96243381,MT,LINCOLN,3,55,0.9,5.8
NLA06608-0066,1,2007-06-12,-79.38081778,39.76851425,PA,SOMERSET,7,665,1.75,2.75
NLA06608-0066,2,2007-09-18,-79.38081778,39.76851425,PA,SOMERSET,6,574,6.6,2.55
NLA06608-0068,1,2007-07-09,-107.8853911,37.82447614,CO,SAN MIGUEL,1,168,0.95,3.8
NLA06608-0068,2,2007-09-12,-107.8853911,37.82447614,CO,SAN MIGUEL,1,131,0.46,10.8
NLA06608-0069,1,2007-07-18,-81.13759704,28.63735951,FL,SEMINOLE,39,420,7.41,0.65
NLA06608-0069,2,2007-09-26,-81.13759704,28.63735951,FL,SEMINOLE,45,771,4.11,0.55
NLA06608-0071,1,2007-09-06,-91.50916933,31.66683993,LA,CONCORDIA,415,2441,198.72,0.38
NLA06608-0071,2,2007-09-08,-91.50916933,31.66683993,LA,CONCORDIA,390,2268,200.16,0.38
NLA06608-0072,1,2007-07-26,-98.40515204,32.23766222,TX,ERATH,174,1724,10.13,0.68
NLA06608-0072,2,2007-08-15,-98.40515204,32.23766222,TX,ERATH,176,2265,146.88,0.35
NLA06608-0073,1,2007-06-12,-118.878391,39.52477029,NV,CHURCHILL,4679,1055,0.49,13.45
NLA06608-0073,2,2007-07-18,-118.878391,39.52477029,NV,CHURCHILL,4865,1750,2.18,6.95
NLA06608-0076,1,2007-07-27,-94.49793062,39.41441295,MO,CLINTON,24,436,10.88,1.26
NLA06608-0076,2,2007-09-04,-94.49793062,39.41441295,MO,CLINTON,32,710,28.8,0.64
NLA06608-0077,1,2007-09-08,-74.53388264,40.92704692,NJ,MORRIS,116,1461,67.97,NA
NLA06608-0077,2,2007-09-13,-74.53388264,40.92704692,NJ,MORRIS,151,1630,94.61,0.45
NLA06608-0078,1,2007-08-08,-100.2942095,48.17781123,ND,MCHENRY,136,4747,10.02,0.75
NLA06608-0078,2,2007-08-21,-100.2942095,48.17781123,ND,MCHENRY,108,4294,13.25,0.59
NLA06608-0079,1,2007-07-12,-107.2317809,39.98585506,CO,GARFIELD,4,97,2.35,6.85
NLA06608-0079,2,2007-08-16,-107.2317809,39.98585506,CO,GARFIELD,7,108,1.4,6.85
NLA06608-0080,1,2007-09-09,-91.56105203,34.1200351,AR,JEFFERSON,100,956,58.46,0.51
NLA06608-0080,2,2007-09-10,-91.56105203,34.1200351,AR,JEFFERSON,113,1047,62.64,0.46
NLA06608-0081,1,2007-07-03,-122.1241675,48.22612028,WA,SNOHOMISH,22,741,6.66,5.74
NLA06608-0081,2,2007-09-19,-122.1241675,48.22612028,WA,SNOHOMISH,23,826,62.02,2.15
NLA06608-0083,1,2007-06-13,-99.13645049,45.95096444,ND,MCINTOSH,50,3925,3.74,NA
NLA06608-0083,2,2007-08-09,-99.13645049,45.95096444,ND,MCINTOSH,60,4009,6.08,NA
NLA06608-0085,1,2007-07-10,-116.1414317,43.46045448,ID,ADA,417,1581,4.04,0.1
NLA06608-0085,2,2007-08-20,-116.1414317,43.46045448,ID,ADA,395,1518,45.2,0.15
NLA06608-0086,1,2007-08-02,-122.4260347,45.61657075,WA,CLARK,20,288,18.24,2.07
NLA06608-0086,2,2007-09-20,-122.4260347,45.61657075,WA,CLARK,32,865,52.56,0.97
NLA06608-0089,1,2007-06-17,-81.54174586,35.7733743,NC,CALDWELL,35,333,11.36,1.35
NLA06608-0089,2,2007-07-17,-81.54174586,35.7733743,NC,CALDWELL,32,478,31.2,1.1
NLA06608-0090,1,2007-06-26,-109.6534609,42.93075473,WY,SUBLETTE,11,253,4.36,4.15
NLA06608-0090,2,2007-07-25,-109.6534609,42.93075473,WY,SUBLETTE,15,350,1.54,4.43
NLA06608-0091,1,2007-07-10,-87.43213825,41.36944118,IN,LAKE,170,2021,118.8,0.31
NLA06608-0091,2,2007-08-13,-87.43213825,41.36944118,IN,LAKE,164,2411,131.4,0.23
NLA06608-0099,1,2007-07-03,-88.45255303,43.09951588,WI,WAUKESHA,6,601,4.6,1.95
NLA06608-0099,2,2007-09-05,-88.45255303,43.09951588,WI,WAUKESHA,11,623,2.66,3.75
NLA06608-0101,1,2007-08-21,-73.48227989,42.02167966,CT,LITCHFIELD,1,63,0.7,9.6
NLA06608-0102,1,2007-08-03,-70.72328312,44.50713663,ME,OXFORD,1,137,1.2,4.37
NLA06608-0104,1,2007-06-22,-98.26265148,37.65529355,KS,KINGMAN,102,1076,38.2,0.23
NLA06608-0104,2,2007-07-24,-98.26265148,37.65529355,KS,KINGMAN,90,1101,36.26,0.4
NLA06608-0105,1,2007-07-05,-112.2015025,38.2350209,UT,PIUTE,45,339,5.98,1.4
NLA06608-0105,2,2007-09-12,-112.2015025,38.2350209,UT,PIUTE,134,433,22.4,0.28
NLA06608-0107,1,2007-06-25,-85.08175821,41.65016117,IN,STEUBEN,3,520,2.32,NA
NLA06608-0110,1,2007-07-31,-95.72856324,46.86973364,MN,BECKER,12,491,1.77,3.85
NLA06608-0111,1,2007-08-01,-81.13692241,41.13540548,OH,PORTAGE,6,343,3.26,1.68
NLA06608-0112,1,2007-07-09,-89.14408234,39.01266111,IL,FAYETTE,96,1266,84.76,0.51
NLA06608-0113,1,2007-07-16,-72.23412171,44.71864202,VT,ORLEANS,9,190,4.69,2.3
NLA06608-0115,1,2007-07-18,-89.19099056,44.32355428,WI,WAUPACA,5,540,1.35,2.6
NLA06608-0116,1,2007-06-28,-106.3013899,35.66653924,NM,SANDOVAL,26,271,2.82,1.43
NLA06608-0120,1,2007-06-18,-96.36834536,36.16292985,OK,OSAGE,315,1174,2.54,0.18
NLA06608-0120,2,2007-09-26,-96.36834536,36.16292985,OK,OSAGE,180,1256,1.78,0.5
NLA06608-0124,1,2007-07-19,-101.8094915,42.14001905,NE,CHERRY,213,340,31.59,0.2
NLA06608-0126,1,2007-06-21,-99.32424356,47.19305824,ND,STUTSMAN,502,5728,228.24,0.17
NLA06608-0126,2,2007-08-28,-99.32424356,47.19305824,ND,STUTSMAN,609,7019,381.6,0.15
NLA06608-0127,1,2007-07-11,-109.3063643,34.15364617,AZ,APACHE,19,641,5.92,2.2
NLA06608-0128,1,2007-06-21,-109.2416928,48.75289143,MT,BLAINE,76,1356,0.46,0.85
NLA06608-0128,2,2007-08-25,-109.2416928,48.75289143,MT,BLAINE,480,3956,271.44,0.34
NLA06608-0129,1,2007-07-21,-114.5994561,48.21240982,MT,FLATHEAD,5,108,0.43,9.11
NLA06608-0129,2,2007-09-16,-114.5994561,48.21240982,MT,FLATHEAD,1,150,0.66,5
NLA06608-0130,1,2007-08-13,-111.0870104,31.40138437,AZ,SANTA CRUZ,36,2234,12.91,1.63
NLA06608-0132,1,2007-08-28,-109.0936327,36.20871918,AZ,APACHE,56,466,8.11,1.35
NLA06608-0134,1,2007-07-24,-73.04056323,41.88000298,CT,LITCHFIELD,4,156,1.58,7.6
NLA06608-0137,1,2007-09-17,-119.3636363,38.14855815,CA,MONO,3,82,1.33,9.9
NLA06608-0139,1,2007-07-11,-85.93794192,41.17205162,IN,KOSCIUSKO,33,763,12.8,1.35
NLA06608-0140,1,2007-06-20,-95.45270584,39.639176,KS,ATCHISON,173,1158,52.56,0.53
NLA06608-0141,1,2007-08-23,-75.68870871,39.41622694,DE,NEW CASTLE,73,975,110.16,0.52
NLA06608-0142,1,2007-08-13,-89.54369029,45.997911619999996,WI,VILAS,7,293,1.36,4.7
NLA06608-0144,1,2007-08-02,-99.39138265,33.39525121,TX,BAYLOR,69,898,22.25,0.96
NLA06608-0144,2,2007-09-13,-99.39138265,33.39525121,TX,BAYLOR,68,751,5.83,0.5
NLA06608-0148,1,2007-07-26,-86.1080157,39.34860511,IN,JOHNSON,16,342,1.87,2.8
NLA06608-0149,1,2007-07-18,-76.84081042,41.63340269,PA,BRADFORD,12,220,4.18,2.3
NLA06608-0150,1,2007-08-02,-69.2311707,44.84955975,ME,PENOBSCOT,16,366,8.22,1.97
NLA06608-0152,1,2007-07-17,-97.68636485,34.59440722,OK,STEPHENS,21,521,5.2,1.2
NLA06608-0153,1,2007-08-30,-78.62538711,37.21418362,VA,PRINCE EDWARD,34,656,10.4,1.68
NLA06608-0155,1,2007-07-31,-88.12714851,42.37328848,IL,LAKE,114,1520,79.8,0.87
NLA06608-0158,1,2007-09-05,-91.24994528,45.88100581,WI,SAWYER,16,651,3.14,5.58
NLA06608-0161,1,2007-08-15,-82.72114525,28.1024337,FL,PINELLAS,30,1069,39,0.65
NLA06608-0162,1,2007-08-28,-72.10321054,42.73356694,NH,CHESHIRE,14,244,2.56,2.15
NLA06608-0167,1,2007-07-23,-94.03191284,44.9419591,MN,MCLEOD,1184,15625,936,0.1
NLA06608-0167,2,2007-08-29,-94.03191284,44.9419591,MN,MCLEOD,1061,14450,643.68,0.1
NLA06608-0168,1,2007-06-13,-94.85392322,37.75822313,KS,BOURBON,61,866,21.76,0.4
NLA06608-0169,1,2007-07-05,-111.5318192,38.51725431,UT,SEVIER,33,353,2.59,5.35
NLA06608-0169,2,2007-09-13,-111.5318192,38.51725431,UT,SEVIER,95,726,26.35,1.65
NLA06608-0170,1,2007-09-21,-86.10688883,43.9911006,MI,MASON,8,780,1.44,NA
NLA06608-0173,1,2007-07-11,-115.5092281,33.07333126,CA,IMPERIAL,57,2218,70.4,0.22
NLA06608-0174,1,2007-07-25,-96.0363618,46.25212358,MN,OTTER TAIL,19,1002,6.75,1.7
NLA06608-0174,2,2007-08-28,-96.0363618,46.25212358,MN,OTTER TAIL,13,803,6.03,2.1
NLA06608-0175,1,2007-08-30,-84.68705386,39.68102041,OH,PREBLE,55,698,19.68,0.91
NLA06608-0176,1,2007-09-07,-90.45779851,35.14239477,AR,CRITTENDEN,207,848,25.76,0.29
NLA06608-0177,1,2007-08-22,-73.05232335,43.89203643,VT,ADDISON,6,177,3.58,2.75
NLA06608-0179,1,2007-06-04,-101.0545158,44.36456222,SD,STANLEY,209,5181,18.4,0.57
NLA06608-0179,2,2007-08-29,-101.0545158,44.36456222,SD,STANLEY,263,8013,104.4,0.4
NLA06608-0180,1,2007-08-29,-98.88132868,34.51894059,OK,TILLMAN,61,721,30.62,0.24
NLA06608-0181,1,2007-09-20,-119.0740544,37.78861101,CA,MONO,6,514,1.38,7
NLA06608-0183,1,2007-07-25,-92.42496232,45.32624711,WI,POLK,68,907,30.1,1.1
NLA06608-0184,1,2007-06-15,-94.74900513,38.83461964,KS,JOHNSON,100,1049,40.75,0.35
NLA06608-0185,1,2007-08-14,-75.45750462,41.11130456,PA,MONROE,9,284,3.13,NA
NLA06608-0189,1,2007-06-11,-80.57939847,40.02942387,WV,OHIO,77,871,32.26,0.38
NLA06608-0189,2,2007-07-10,-80.57939847,40.02942387,WV,OHIO,65,648,47.23,0.58
NLA06608-0190,1,2007-08-14,-93.75949137,47.67254307,MN,ITASCA,16,666,5.17,2.45
NLA06608-0191,1,2007-07-21,-83.66709127,35.16783478,NC,MACON,1,48,1.13,6.9
NLA06608-0193,1,2007-07-11,-121.1758404,48.70438576,WA,WHATCOM,3,71,0.3,NA
NLA06608-0195,1,2007-06-12,-99.08101063,46.89197546,ND,STUTSMAN,447,1955,15.55,0.83
NLA06608-0196,1,2007-06-21,-88.06164584,38.77692521,IL,RICHLAND,94,1250,31.4,0.83
NLA06608-0198,1,2007-07-24,-70.08954132,41.71307603,MA,BARNSTABLE,25,353,10.67,2.1
NLA06608-0201,1,2007-09-18,-120.4416484,39.11225012,CA,PLACER,3,40,0.8,7.75
NLA06608-0203,1,2007-08-02,-87.31609868,34.00633269,AL,WINSTON,1,239,0.77,4.48
NLA06608-0204,1,2007-09-12,-99.24197456,35.43592446,OK,WASHITA,125,1355,68.85,0.4
NLA06608-0207,1,2007-07-18,-84.81807605,32.60301252,GA,HARRIS,14,384,6.52,2.1
NLA06608-0207,2,2007-09-05,-84.81807605,32.60301252,GA,HARRIS,18,419,7.79,1.7
NLA06608-0208,1,2007-09-06,-90.96329594,35.58384499,AR,POINSETT,162,1687,65.6,0.28
NLA06608-0209,1,2007-07-19,-122.0836788,47.57601003,WA,KING,4,205,2.41,7.1
NLA06608-0209,2,2007-09-27,-122.0836788,47.57601003,WA,KING,6,201,4.11,4.62
NLA06608-0211,1,2007-08-07,-95.76982211,47.46534213,MN,MAHNOMEN,42,1340,9.07,NA
NLA06608-0212,1,2007-07-12,-86.46847503,39.02766863,IN,MONROE,8,88,4.36,2.1
NLA06608-0215,1,2007-08-22,-94.96441345,45.2593824,MN,KANDIYOHI,83,1463,58.46,0.68
NLA06608-0216,1,2007-07-06,-96.52877618,40.3285507,NE,GAGE,619,1367,19.2,0.35
NLA06608-0217,1,2007-06-24,-79.1460479,36.15288306,NC,ORANGE,6,508,17.6,1.13
NLA06608-0219,1,2007-08-01,-85.37102925,41.40043649,IN,NOBLE,36,1826,55.58,0.35
NLA06608-0220,1,2007-08-02,-100.5303638,42.50465482,NE,CHERRY,872,22613,871.2,0.1
NLA06608-0221,1,2007-06-28,-76.82122952,37.29913592,VA,JAMES CITY,38,594,31.68,0.72
NLA06608-0222,1,2007-06-27,-102.9398075,48.40689317,ND,WILLIAMS,114,2008,38.74,0.48
NLA06608-0223,1,2007-06-27,-84.20752986,33.58413004,GA,HENRY,45,569,21.92,1.38
NLA06608-0223,2,2007-08-29,-84.20752986,33.58413004,GA,HENRY,44,705,60.91,0.65
NLA06608-0224,1,2007-07-19,-90.58984208,37.64783657,MO,ST FRANCOIS,14,283,1.88,1.93
NLA06608-0224,2,2007-09-23,-90.58984208,37.64783657,MO,ST FRANCOIS,7,385,2.74,2.86
NLA06608-0225,1,2007-07-11,-112.5389845,47.48039976,MT,LEWIS AND CLARK,4,130,0.88,4.3
NLA06608-0225,2,2007-08-24,-112.5389845,47.48039976,MT,LEWIS AND CLARK,46,506,1.67,1.85
NLA06608-0226,1,2007-07-09,-71.24740864,43.19952563,NH,ROCKINGHAM,8,328,5.89,2.43
NLA06608-0228,1,2007-06-26,-103.6093941,38.06219707,CO,OTERO,25,408,1.43,4.4
NLA06608-0228,2,2007-08-06,-103.6093941,38.06219707,CO,OTERO,96,710,17.42,0.65
NLA06608-0229,1,2007-09-13,-74.449008,43.95295544,NY,HAMILTON,4,219,3.6,3
NLA06608-0234,1,2007-08-23,-85.46799659,43.21855689,MI,KENT,14,584,4.78,3.3
NLA06608-0235,1,2007-07-16,-85.75477789,41.3229061,IN,KOSCIUSKO,8,626,7.8,1.65
NLA06608-0237,1,2007-06-26,-115.1177953,38.38849036,NV,NYE,23,678,1.86,NA
NLA06608-0237,2,2007-07-17,-115.1177953,38.38849036,NV,NYE,25,588,4.23,NA
NLA06608-0238,1,2007-07-11,-94.17531685,46.57881675,MN,CROW WING,7,265,2.98,3.9
NLA06608-0239,1,2007-07-24,-85.55980719,35.01895093,TN,MARION,36,383,2.66,1.9
NLA06608-0240,1,2007-07-25,-107.5902123,48.47756954,MT,PHILLIPS,14,396,2.1,3.05
NLA06608-0241,1,2007-08-15,-111.7292621,42.29154287,ID,FRANKLIN,80,774,9.74,0.35
NLA06608-0242,1,2007-08-02,-71.91051169,41.56832304,CT,NEW LONDON,20,300,2.87,2.6
NLA06608-0243,1,2007-07-18,-100.7421974,44.73647289,SD,CORSON,7,203,1.82,3.89
NLA06608-0244,1,2007-06-20,-99.23199838,33.73938795,TX,BAYLOR,15,436,6,1.03
NLA06608-0245,1,2007-07-24,-122.1300516,38.36396781,CA,NAPA,11,329,2.66,5.15
NLA06608-0247,1,2007-07-17,-96.96004,43.53474213,SD,MINNEHAHA,202,1625,55.8,1.19
NLA06608-0253,1,2007-08-08,-81.83068716,32.47736836,GA,BULLOCH,127,968,32.54,0.83
NLA06608-0254,1,2007-06-21,-99.09494995,47.96678307,ND,BENSON,175,2816,49.6,0.6
NLA06608-0255,1,2007-08-07,-85.31930179,35.94835771,TN,WHITE,4,276,2.44,3.63
NLA06608-0257,1,2007-07-18,-115.2253416,48.54139505,MT,LINCOLN,1,79,1.15,4.65
NLA06608-0259,1,2007-06-14,-98.99123974,46.37421211,ND,LA MOURE,613,3172,48.24,0.55
NLA06608-0260,1,2007-08-30,-106.6907196,36.67343618,NM,RIO ARRIBA,8,136,1.27,3.7
NLA06608-0268,1,2007-09-10,-96.32121976,35.50848975,OK,OKFUSKEE,20,464,7.7,1.05
NLA06608-0271,1,2007-06-27,-83.87906608,40.47787067,OH,LOGAN,99,857,30.04,0.38
NLA06608-0275,1,2007-06-21,-99.38087643,46.27199075,ND,MCINTOSH,331,3084,6.72,0.75
NLA06608-0276,1,2007-08-07,-105.0043919,38.77637097,CO,TELLER,7,254,1.98,7.4
NLA06608-0277,1,2007-07-20,-113.4006122,42.6781739,ID,BLAINE,117,451,12.93,0.55
NLA06608-0279,1,2007-08-08,-93.8978566,44.19244227,MN,BLUE EARTH,239,4600,126.27,0.25
NLA06608-0280,1,2007-07-25,-95.89426355,32.08989492,TX,HENDERSON,81,1229,20.95,0.98
NLA06608-0281,1,2007-06-20,-80.57559837,35.49457482,NC,ROWAN,44,639,25.1,0.73
NLA06608-0283,1,2007-07-09,-87.85257456,32.51233098,AL,GREENE,33,381,9.86,0.54
NLA06608-0284,1,2007-07-30,-98.73027981,34.9138437,OK,KIOWA,79,865,20.8,0.46
NLA06608-0285,1,2007-07-24,-75.56227311,38.55948746,DE,SUSSEX,138,4222,35.28,0.55
NLA06608-0286,1,2007-08-08,-88.82970363,46.15225085,MI,IRON,5,413,2.22,5.42
NLA06608-0290,1,2007-07-11,-120.5256858,42.19565154,OR,LAKE,178,273,4.3,0.45
NLA06608-0290,2,2007-09-10,-120.5256858,42.19565154,OR,LAKE,629,1231,15.6,0.1
NLA06608-0291,1,2007-07-11,-88.99784821,43.81382063,WI,GREEN LAKE,13,553,3.62,3.65
NLA06608-0293,1,2007-07-25,-73.50316356,41.38426053,CT,FAIRFIELD,30,759,21.89,1.2
NLA06608-0294,1,2007-06-26,-72.11517323,44.95223074,VT,ORLEANS,1,343,2.34,5.05
NLA06608-0295,1,2007-06-26,-97.63176411,45.18747233,SD,DAY,242,2026,5.73,0.67
NLA06608-0297,1,2007-07-24,-81.67207159,33.84097049,SC,SALUDA,31,587,14.13,1.13
NLA06608-0299,1,2007-07-30,-85.2449775,41.45660059,IN,NOBLE,18,915,3.78,2.85
NLA06608-0302,1,2007-06-23,-97.02426153,45.91703876,SD,ROBERTS,1871,6934,203.76,0.22
NLA06608-0303,1,2007-08-07,-82.72837965,41.08805669,OH,HURON,79,1523,84.24,0.63
NLA06608-0306,1,2007-07-16,-119.4133477,43.41788272,OR,HARNEY,271,1525,38.73,0.15
NLA06608-0312,1,2007-07-16,-95.54639054,38.81717464,KS,OSAGE,35,355,19.2,0.9
NLA06608-0313,1,2007-07-13,-79.6893777,34.88602671,NC,RICHMOND,24,279,15.08,0.73
NLA06608-0318,1,2007-07-20,-92.43469487,47.46148555,MN,ST LOUIS,43,847,13.89,1.65
NLA06608-0319,1,2007-07-22,-83.11204858,34.72229815,SC,OCONEE,16,251,4.48,1.45
NLA06608-0324,1,2007-08-08,-82.20271516,36.94420902,VA,RUSSELL,21,248,4.82,1.5
NLA06608-0325,1,2007-07-17,-81.43794893,28.56369452,FL,ORANGE,50,814,46,0.55
NLA06608-0326,1,2007-08-16,-72.04012641,41.35719487,CT,NEW LONDON,5,225,1.26,4.25
NLA06608-0327,1,2007-06-27,-91.37124941,31.70973689,MS,ADAMS,13,281,56.74,0.31
NLA06608-0328,1,2007-08-25,-93.87023429,32.515555,LA,CADDO,82,1093,117.5,0.53
NLA06608-0328,2,2007-09-15,-93.87023429,32.515555,LA,CADDO,73,1078,97.49,0.43
NLA06608-0330,1,2007-09-05,-83.45698555,45.06291593,MI,ALPENA,13,289,1.1,3.95
NLA06608-0332,1,2007-09-04,-94.96969524,35.64054377,OK,CHEROKEE,11,260,6.44,1.93
NLA06608-0333,1,2007-07-24,-74.85056841,40.62803319,NJ,HUNTERDON,15,282,5.04,2.5
NLA06608-0334,1,2007-06-27,-100.758717,48.31405586,ND,MCHENRY,142,1834,5.88,1.63
NLA06608-0337,1,2007-07-12,-122.6562431,48.39382391,WA,ISLAND,23,586,7.84,3.03
NLA06608-0339,1,2007-06-25,-99.42452982,46.11443869,ND,MCINTOSH,376,1659,7.44,1.95
NLA06608-0340,1,2007-06-21,-105.8760128,35.69079767,NM,SANTA FE,23,333,9.9,1.87
NLA06608-0341,1,2007-09-18,-75.93516194,43.20849339,NY,ONEIDA,23,333,5.28,3.65
NLA06608-0343,1,2007-08-21,-96.63532038,44.87173399,SD,DEUEL,117,2606,45.36,1.36
NLA06608-0344,1,2007-07-05,-96.87657153,40.96440578,NE,LANCASTER,53,848,24.8,1
NLA06608-0345,1,2007-06-21,-79.84411222,36.6584792,VA,MARTINSVILLE,22,511,6.05,2.45
NLA06608-0350,1,2007-08-09,-90.6606696,45.7646886,WI,PRICE,18,902,17.44,1.15
NLA06608-0354,1,2007-07-19,-71.80704144,42.51316899,MA,WORCESTER,5,188,2.09,NA
NLA06608-0356,1,2007-07-16,-104.5942811,36.5624187,NM,COLFAX,167,2897,110.7,1.85
NLA06608-0357,1,2007-07-27,-73.13778739,42.31280493,MA,BERKSHIRE,14,276,5.62,1.78
NLA06608-0358,1,2007-07-17,-71.13479653,44.84025867,NH,COOS,7,209,3.69,2.23
NLA06608-0359,1,2007-07-10,-96.62636247,45.40860134,SD,ROBERTS,191,1296,42.66,0.3
NLA06608-0361,1,2007-07-15,-81.04741516,35.02063348,NC,MECKLENBURG,19,171,11.86,1.98
NLA06608-0363,1,2007-07-21,-85.33088977,41.93460679,MI,ST JOSEPH,18,567,11.68,1.7
NLA06608-0366,1,2007-07-31,-95.26723865,46.94267011,MN,BECKER,14,601,7.57,2.55
NLA06608-0367,1,2007-08-23,-81.22089462,41.36496934,OH,GEAUGA,54,2157,59.4,0.29
NLA06608-0369,1,2007-07-26,-72.31186438,44.58635561,VT,ORLEANS,1,163,1.74,6
NLA06608-0372,1,2007-08-03,-105.0515471,38.4638561,CO,FREMONT,16,229,3.16,5.4
NLA06608-0373,1,2007-07-12,-117.1853787,34.25648145,CA,SAN BERNARDINO,1,104,0.68,7.74
NLA06608-0376,1,2007-08-22,-96.12859695,36.30884018,OK,OSAGE,6,324,4.25,1.73
NLA06608-0377,1,2007-07-12,-76.77414252,40.86340465,PA,NORTHUMBERLAND,46,850,44.93,0.55
NLA06608-0378,1,2007-06-26,-112.4475051,47.55716773,MT,LEWIS AND CLARK,9,223,0.55,3
NLA06608-0384,1,2007-06-28,-103.1433201,48.71606442,ND,DIVIDE,68,4291,3.39,NA
NLA06608-0385,1,2007-07-06,-112.8672712,48.24355,MT,PONDERA,51,1834,2.31,NA
NLA06608-0386,1,2007-08-07,-78.46066192,40.49157546,PA,BLAIR,9,475,0.83,6.8
NLA06608-0388,1,2007-08-16,-83.70494798,36.68164988,KY,BELL,3,85,0.33,3.48
NLA06608-0388,2,2007-08-26,-83.70494798,36.68164988,KY,BELL,1,35,0.35,4.5
NLA06608-0393,1,2007-07-23,-120.5721188,37.89444471,CA,CALAVERAS,8,101,1.24,2.74
NLA06608-0395,1,2007-06-27,-86.48006432,33.09780391,AL,ST CLAIR,13,231,30.4,0.68
NLA06608-0399,1,2007-07-16,-83.99670111,42.42304224,MI,LIVINGSTON,13,586,3.35,2.27
NLA06608-0401,1,2007-08-27,-68.23140034,47.17784258,ME,AROOSTOOK,10,279,16.16,1.87
NLA06608-0402,1,2007-06-26,-124.0780934,42.88974892,OR,COOS,176,2287,73.73,0.82
NLA06608-0402,2,2007-09-06,-124.0780934,42.88974892,OR,COOS,96,1027,81.5,1.84
NLA06608-0403,1,2007-08-06,-94.56183848,47.39595432,MN,BELTRAMI,20,485,5.36,2.05
NLA06608-0405,1,2007-08-30,-75.87948445,41.97137282,PA,SUSQUEHANNA,16,458,8.56,2.55
NLA06608-0406,1,2007-08-21,-121.7044304,45.18038118,OR,WASCO,4,172,1.23,NA
NLA06608-0407,1,2007-07-23,-97.75438416,45.09335555,SD,CLARK,762,2872,1.81,2.47
NLA06608-0408,1,2007-06-20,-97.28183273,34.36882178,OK,CARTER,15,270,5.67,1.17
NLA06608-0413,1,2007-06-27,-77.7454141,36.56057181,VA,GREENSVILLE,106,581,108.58,0.95
NLA06608-0414,1,2007-07-31,-91.61045649,46.13180055,WI,WASHBURN,40,1296,6.69,0.9
NLA06608-0418,1,2007-07-19,-71.9999278,42.76982559,NH,CHESHIRE,8,296,2.18,NA
NLA06608-0421,1,2007-06-28,-73.76674325,43.09504296,NY,SARATOGA,9,537,2.18,2.9
NLA06608-0425,1,2007-08-01,-111.8406157,38.60231182,UT,SEVIER,234,1433,16.16,1.43
NLA06608-0426,1,2007-09-17,-85.07388127,43.8382238,MI,CLARE,5,574,3.12,3.6
NLA06608-0432,1,2007-07-16,-90.07170002,34.72092203,MS,DE SOTO,218,644,24.8,0.31
NLA06608-0433,1,2007-08-09,-73.29262702,44.52251138,VT,FRANKLIN,7,422,1.68,5.05
NLA06608-0435,1,2007-07-23,-90.698138169999993,45.16826567,WI,TAYLOR,78,1824,23.2,0.8
NLA06608-0436,1,2007-09-05,-92.9382529,34.45197764,AR,GARLAND,29,398,18.22,1.52
NLA06608-0439,1,2007-06-27,-99.23111059,45.6434979,SD,MCPHERSON,1056,19200,377.28,0.1
NLA06608-0440,1,2007-08-08,-97.34810228,36.23894258,OK,NOBLE,182,853,5.46,0.64
NLA06608-0442,1,2007-08-14,-101.9047579,48.28610194,ND,WARD,385,6559,4.5,0.76
NLA06608-0444,1,2007-07-12,-89.91161609,34.16578918,MS,PANOLA,42,383,10.27,NA
NLA06608-0445,1,2007-06-28,-81.01548859,40.04075657,OH,BELMONT,15,336,6.85,1.47
NLA06608-0447,1,2007-08-25,-82.87603537,38.47961378,KY,GREENUP,3,79,1.21,4.5
NLA06608-0449,1,2007-07-26,-117.6915241,48.13580369,WA,STEVENS,16,404,4.39,1.95
NLA06608-0452,1,2007-06-15,-105.0360311,39.80684554,CO,ADAMS,37,604,7.25,1.21
NLA06608-0453,1,2007-07-31,-81.77025392,28.57332363,FL,LAKE,48,1056,4.31,0.75
NLA06608-0454,1,2007-07-25,-71.19898937,41.97098891,MA,BRISTOL,16,367,3.2,NA
NLA06608-0456,1,2007-08-09,-96.47583806,33.06325702,TX,COLLIN,29,681,25.1,1.1
NLA06608-0458,1,2007-07-25,-83.54189637,31.16378198,GA,COOK,39,947,15.06,1.15
NLA06608-0459,1,2007-07-16,-86.84234494,34.2269109,AL,CULLMAN,8,200,3.98,2.63
NLA06608-0463,1,2007-08-19,-83.52098213,42.21176414,MI,WAYNE,82,1031,30.72,0.58
NLA06608-0467,1,2007-07-09,-89.36445641,43.54592149,WI,COLUMBIA,15,788,12.72,1.1
NLA06608-0468,1,2007-08-01,-106.6003635,39.43240936,CO,EAGLE,8,179,0.64,7.1
NLA06608-0469,1,2007-08-29,-75.33783928,41.90973411,PA,WAYNE,11,191,3.35,4
NLA06608-0470,1,2007-07-24,-71.2654292,43.62308804,NH,CARROLL,8,193,1.51,5.75
NLA06608-0471,1,2007-06-25,-97.2623188,45.44015743,SD,DAY,24,839,5.52,1.77
NLA06608-0472,1,2007-07-16,-96.23835676,34.57061143,OK,COAL,78,803,19.2,0.39
NLA06608-0473,1,2007-06-19,-80.20338458,35.51629478,NC,DAVIDSON,55,714,36.82,1.03
NLA06608-0479,1,2007-08-16,-83.00425479,39.92061781,OH,FRANKLIN,14,318,5.3,2.92
NLA06608-0480,1,2007-08-24,-90.54213897,37.99433764,MO,ST FRANCOIS,3,194,1.52,5.21
NLA06608-0480,2,2007-09-25,-90.54213897,37.99433764,MO,ST FRANCOIS,4,232,1.32,6.09
NLA06608-0483,1,2007-07-11,-101.1563449,29.49147018,TX,VAL VERDE,4,461,3.84,4.32
NLA06608-0484,1,2007-07-12,-88.48981792,36.3106781,TN,HENRY,190,1519,126.4,0.28
NLA06608-0488,1,2007-07-19,-95.98672528,37.19249014,KS,CHAUTAUQUA,162,1070,49.68,0.45
NLA06608-0489,1,2007-07-10,-78.00762524,38.49363215,VA,CULPEPER,107,1275,24.32,0.5
NLA06608-0491,1,2007-07-17,-85.734175,41.41314405,IN,KOSCIUSKO,16,665,7.2,NA
NLA06608-0493,1,2007-07-11,-77.64555522,38.77124892,VA,PRINCE WILLIAM,15,353,9.47,1.52
NLA06608-0494,1,2007-07-11,-94.53354023,46.82219046,MN,CASS,4,401,24.64,1.65
NLA06608-0495,1,2007-09-05,-107.4380582,38.44681794,CO,GUNNISON,11,136,1.77,4.68
NLA06608-0496,1,2007-06-23,-108.0524686,48.75171319,MT,PHILLIPS,620,4372,0.69,NA
NLA06608-0497,1,2007-08-17,-111.8159376,42.10765269,ID,FRANKLIN,17,156,0.86,1.42
NLA06608-0498,1,2007-07-31,-71.95133091,41.95095517,CT,WINDHAM,44,820,26.42,1.05
NLA06608-0500,1,2007-09-14,-94.21467091,34.21452974,AR,POLK,21,266,13.12,1.55
NLA06608-0501,1,2007-07-24,-122.6247455,37.94635193,CA,MARIN,6,182,0.63,5.95
NLA06608-0502,1,2007-08-18,-83.7469401,42.82731383,MI,GENESEE,5,648,2.28,3.83
NLA06608-0503,1,2007-08-01,-97.0587349,43.57477426,SD,MINNEHAHA,430,5916,244.8,0.14
NLA06608-0508,1,2007-07-10,-90.54209875,33.85862113,MS,SUNFLOWER,283,756,28,0.26
NLA06608-0509,1,2007-06-20,-79.56745425,40.46163354,PA,WESTMORELAND,4,821,1.23,5.5
NLA06608-0510,1,2007-06-27,-98.8914836,48.24775379,ND,RAMSEY,165,2916,71.2,0.48
NLA06608-0511,1,2007-09-06,-107.5377617,38.22555093,CO,GUNNISON,13,112,2.35,1.7
NLA06608-0512,1,2007-08-13,-100.3053493,48.92434782,ND,BOTTINEAU,61,2447,11.84,0.71
NLA06608-0514,1,2007-07-24,-78.11907346,40.35740927,PA,HUNTINGDON,7,1009,3.86,3.05
NLA06608-0515,1,2007-06-28,-98.94484753,46.02793009,ND,DICKEY,335,4984,5.92,0.84
NLA06608-0523,1,2007-07-16,-96.95103624,43.92368969,SD,LAKE,115,1738,48.6,1.25
NLA06608-0526,1,2007-07-18,-91.39296143,47.94850085,MN,LAKE,17,651,11.01,1.55
NLA06608-0528,1,2007-06-28,-99.85563998,40.69518018,NE,DAWSON,65,814,11.79,0.7
NLA06608-0529,1,2007-09-04,-119.3639845,47.18441442,WA,GRANT,42,508,26.08,1.93
NLA06608-0530,1,2007-08-07,-81.41308684,31.05988383,GA,GLYNN,117,1016,17.76,1.05
NLA06608-0531,1,2007-07-11,-99.16791062,46.03407357,ND,MCINTOSH,57,2697,3.81,1.15
NLA06608-0533,1,2007-07-18,-78.29237084,42.25218027,NY,ALLEGANY,6,178,3.18,3.8
NLA06608-0537,1,2007-06-06,-81.05483233,37.69558878,WV,RALEIGH,11,256,2.34,1.78
NLA06608-0540,1,2007-08-27,-99.37115228,35.17104325,OK,BECKHAM,235,2250,95.04,0.21
NLA06608-0541,1,2007-07-12,-77.33745683,38.96504347,VA,FAIRFAX,14,329,6.02,1.6
NLA06608-0542,1,2007-08-30,-88.36579346,45.78575069,WI,FLORENCE,15,1303,3.18,NA
NLA06608-0546,1,2007-07-18,-71.47978934,42.35496664,MA,MIDDLESEX,181,4022,14.94,1.98
NLA06608-0547,1,2007-07-31,-89.83486415,44.20672826,WI,ADAMS,10,519,2.11,3.6
NLA06608-0550,1,2007-08-01,-71.96791311,43.9575273,NH,GRAFTON,1,234,1.31,5.95
NLA06608-0551,1,2007-08-20,-94.16801923,45.10823473,MN,WRIGHT,54,1361,16.8,1.75
NLA06608-0555,1,2007-07-23,-85.00769013,41.72092858,IN,STEUBEN,8,578,5.65,2.03
NLA06608-0558,1,2007-08-09,-96.21518776,46.76330385,MN,CLAY,17,1154,7.22,2.4
NLA06608-0560,1,2007-09-12,-101.6607655,35.61858883,TX,MOORE,27,532,12.96,0.8
NLA06608-0561,1,2007-08-09,-116.0893222,44.9484358,ID,VALLEY,5,86,0.14,7.05
NLA06608-0562,1,2007-07-13,-71.61087837,41.68686806,RI,KENT,9,334,2.08,2.78
NLA06608-0562,2,2007-08-21,-71.61087837,41.68686806,RI,KENT,4,280,2.35,2.34
NLA06608-0564,1,2007-08-22,-105.9168212,35.97472589,NM,SANTA FE,14,217,6.65,2.42
NLA06608-0565,1,2007-07-19,-121.9668773,37.24525923,CA,SANTA CLARA,81,704,40.9,0.76
NLA06608-0569,1,2007-08-07,-112.4389242,34.60517537,AZ,YAVAPAI,518,2188,54,0.43
NLA06608-0570,1,2007-07-27,-109.2242066,45.44213549,MT,CARBON,12,300,3.49,5.06
NLA06608-0579,1,2007-08-19,-99.7794296,46.82469712,ND,KIDDER,229,2694,7.14,0.14
NLA06608-0580,1,2007-08-07,-82.39104876,37.17718851,VA,DICKENSON,10,183,1.82,4.75
NLA06608-0581,1,2007-07-03,-114.3827885,43.25263859,ID,BLAINE,8,241,1.93,6.6
NLA06608-0582,1,2007-07-19,-72.52468392,41.80079367,CT,HARTFORD,315,2709,15.7,1.5
NLA06608-0583,1,2007-06-26,-91.54690118,31.20627441,MS,WILKINSON,590,4897,326.88,0.28
NLA06608-0585,1,2007-06-15,-118.7255216,39.48658532,NV,CHURCHILL,105,505,2.53,0.24
NLA06608-0587,1,2007-07-09,-86.59115603,41.2184867,IN,STARKE,29,1153,15.28,1.09
NLA06608-0587,2,2007-08-14,-86.59115603,41.2184867,IN,STARKE,30,1271,20.92,0.75
NLA06608-0588,1,2007-07-13,-97.37482305,39.3320249,KS,CLOUD,589,1729,7.47,0.09
NLA06608-0591,1,2007-08-21,-84.64323654,34.13761156,GA,CHEROKEE,5,182,5.81,2.1
NLA06608-0593,1,2007-07-10,-122.3277089,48.70867836,WA,WHATCOM,4,203,10.69,4.91
NLA06608-0594,1,2007-08-09,-82.0648507,32.37834158,GA,CANDLER,41,821,20.64,0.88
NLA06608-0595,1,2007-06-12,-99.76603988,45.81215092,SD,CAMPBELL,258,3828,106.56,0.27
NLA06608-0596,1,2007-07-30,-106.3650807,39.07986361,CO,LAKE,1,96,0.99,5.55
NLA06608-0597,1,2007-07-09,-116.6654946,43.54705816,ID,CANYON,22,361,7.8,1.26
NLA06608-0599,1,2007-07-19,-96.59781441,30.29008869,TX,BURLESON,90,1012,50.26,0.64
NLA06608-0606,1,2007-08-08,-90.50816425,45.97262852,WI,PRICE,15,708,5.82,1.55
NLA06608-0608,1,2007-09-18,-89.26975098,36.59009304,MO,MISSISSIPPI,327,2184,102.6,0.42
NLA06608-0609,1,2007-07-25,-82.27729181,28.06126866,FL,HILLSBOROUGH,239,3334,187.92,0.23
NLA06608-0610,1,2007-08-02,-71.3703595,42.69132092,NH,HILLSBOROUGH,11,549,5.81,2.6
NLA06608-0611,1,2007-07-02,-89.25185174,42.9654707,WI,DANE,53,903,20.64,1.45
NLA06608-0614,1,2007-06-27,-123.2686178,43.37864455,OR,DOUGLAS,8,259,1.22,4.97
NLA06608-0616,1,2007-07-25,-98.88888117,36.72480919,OK,WOODS,14,483,1.69,NA
NLA06608-0617,1,2007-06-19,-111.4965509,35.06360996,AZ,COCONINO,40,513,2.44,0.93
NLA06608-0618,1,2007-07-24,-86.43728338,31.44842292,AL,CRENSHAW,23,257,10.17,0.98
NLA06608-0619,1,2007-07-18,-85.4673404,42.32382664,MI,KALAMAZOO,7,733,2.95,2.35
NLA06608-0622,1,2007-07-24,-95.33234259,45.88174092,MN,DOUGLAS,16,508,4.4,1.4
NLA06608-0623,1,2007-06-20,-81.31730025,41.06227132,OH,PORTAGE,43,628,23.2,1.15
NLA06608-0624,1,2007-06-05,-89.02743535,39.37683345,IL,CHRISTIAN,49,1274,35.2,0.86
NLA06608-0625,1,2007-09-19,-118.185992,44.9542938,OR,BAKER,1,55,0.62,7.55
NLA06608-0627,1,2007-07-19,-88.48011849,44.88675167,WI,OCONTO,11,616,3.19,3.3
NLA06608-0628,1,2007-06-25,-105.1444706,35.75956138,NM,SAN MIGUEL,40,793,2.3,0.55
NLA06608-0630,1,2007-07-30,-87.77935818,46.30058363,MI,MARQUETTE,8,771,2.62,2.05
NLA06608-0632,1,2007-06-12,-94.63514177,38.35723526,KS,LINN,44,746,34,0.98
NLA06608-0634,1,2007-08-22,-101.229344,47.92494929,ND,WARD,288,6800,139.68,0.41
NLA06608-0635,1,2007-08-22,-105.1268527,40.33649731,CO,LARIMER,18,224,5.15,2.03
NLA06608-0637,1,2007-08-06,-111.0580729,40.13391202,UT,WASATCH,21,454,7.41,4.2
NLA06608-0641,1,2007-07-25,-117.6640499,48.41877337,WA,STEVENS,49,737,25.44,1.8
NLA06608-0648,1,2007-08-01,-99.24832126,42.26770086,NE,ROCK,349,8603,78.29,0.2
NLA06608-0649,1,2007-09-19,-119.9997761,38.47603543,CA,ALPINE,9,95,3.64,5.25
NLA06608-0650,1,2007-07-25,-111.3963618,44.64209925,ID,FREMONT,23,466,6.9,1.8
NLA06608-0651,1,2007-07-17,-86.64445451,33.46835151,AL,JEFFERSON,12,290,12.96,1.45
NLA06608-0654,1,2007-08-14,-89.35046545,45.98738228,WI,VILAS,22,698,9.15,1.15
NLA06608-0657,1,2007-09-13,-69.00206052,46.16790978,ME,PISCATAQUIS,20,559,12.48,0.95
NLA06608-0658,1,2007-07-26,-124.0796101,44.02383508,OR,LANE,5,110,1.12,6.65
NLA06608-0659,1,2007-06-26,-98.0662251,48.18807378,ND,NELSON,432,1593,24.14,1.38
NLA06608-0660,1,2007-07-12,-86.21162845,39.71571919,IN,MARION,8,1546,2.9,2.13
NLA06608-0661,1,2007-08-08,-75.70704866,41.55549527,PA,LACKAWANNA,22,601,25.92,1.64
NLA06608-0662,1,2007-08-07,-71.35188791,45.0802966,NH,COOS,12,256,2.97,2.55
NLA06608-0663,1,2007-08-08,-97.43982726,44.92721305,SD,CODINGTON,618,6603,273.6,0.13
NLA06608-0665,1,2007-06-27,-79.20867259,35.05246497,NC,HOKE,1,86,2.5,2.25
NLA06608-0671,1,2007-08-16,-110.3847622,40.68974933,UT,DUCHESNE,19,380,1.12,NA
NLA06608-0672,1,2007-07-26,-90.09502746,38.70179794,IL,MADISON,213,2273,63.36,0.31
NLA06608-0674,1,2007-07-26,-72.95778821,42.54198776,MA,HAMPSHIRE,3,243,1.02,NA
NLA06608-0677,1,2007-07-17,-118.446839,42.77239407,OR,HARNEY,150,1864,25.72,0.48
NLA06608-0678,1,2007-08-07,-121.7804825,43.96358712,OR,DESCHUTES,52,462,8.27,NA
NLA06608-0679,1,2007-06-27,-93.24237251,44.90724118,MN,HENNEPIN,13,635,12.11,2.28
NLA06608-0681,1,2007-06-14,-80.61407853,38.82349927,WV,BRAXTON,9,249,3.44,2.48
NLA06608-0686,1,2007-07-11,-95.68760607,45.99294588,MN,DOUGLAS,122,1343,4.21,NA
NLA06608-0687,1,2007-08-14,-108.0510627,38.99691941,CO,DELTA,13,198,2.28,6.5
NLA06608-0690,1,2007-07-03,-71.5975535,41.98943091,RI,PROVIDENCE,15,479,4.61,2.81
NLA06608-0690,2,2007-08-22,-71.5975535,41.98943091,RI,PROVIDENCE,17,352,4.77,1.61
NLA06608-0692,1,2007-07-10,-99.05552208,40.67141407,NE,BUFFALO,23,631,13.76,2.05
NLA06608-0693,1,2007-07-25,-119.5155897,37.14727752,CA,MADERA,4,79,1.46,NA
NLA06608-0696,1,2007-07-16,-97.4757382,34.94582155,OK,MCCLAIN,252,829,32.62,0.82
NLA06608-0707,1,2007-07-12,-99.41665043,46.89269882,ND,STUTSMAN,127,4034,5.6,2.15
NLA06608-0709,1,2007-09-18,-81.68245579,28.86654374,FL,LAKE,202,2492,98.46,0.45
NLA06608-0710,1,2007-07-24,-70.65792119,41.76026908,MA,PLYMOUTH,21,302,7.44,1.56
NLA06608-0711,1,2007-09-10,-93.11140261,30.75107327,LA,BEAUREGARD,74,523,16.32,0.83
NLA06608-0712,1,2007-07-24,-97.62566712,32.02985585,TX,BOSQUE,14,417,3.06,3.26
NLA06608-0713,1,2007-09-12,-120.0976296,39.40384918,CA,NEVADA,7,138,1.65,3.2
NLA06608-0715,1,2007-07-06,-105.3784913,40.21848571,CO,BOULDER,4,123,3.55,3.8
NLA06608-0717,1,2007-06-14,-75.53217241,39.17533903,DE,KENT,225,2030,216,0.29
NLA06608-0718,1,2007-07-18,-103.2176549,46.47746767,ND,SLOPE,616,1869,2.64,0.28
NLA06608-0720,1,2007-06-26,-99.96360846,39.78368053,KS,NORTON,195,1435,19.2,0.78
NLA06608-0721,1,2007-07-05,-122.4056376,46.49728658,WA,LEWIS,21,441,7.1,2.27
NLA06608-0723,1,2007-08-18,-102.0383947,42.92255989,NE,CHERRY,24,1433,5.65,1.63
NLA06608-0724,1,2007-08-13,-85.98220181,39.18947102,IN,BARTHOLOMEW,9,273,2.97,3.69
NLA06608-0726,1,2007-08-14,-71.09335145,43.83495077,NH,CARROLL,6,202,1.5,3.95
NLA06608-0727,1,2007-06-23,-97.34187361,45.63873346,SD,MARSHALL,191,3722,130.4,0.32
NLA06608-0731,1,2007-08-07,-85.59855169,41.33744108,IN,NOBLE,17,1221,2.88,4.13
NLA06608-0733,1,2007-06-27,-115.1266278,37.30165688,NV,LINCOLN,28,993,2.85,0.26
NLA06608-0734,1,2007-07-24,-88.31643187,47.12976263,MI,HOUGHTON,16,364,3.15,0.66
NLA06608-0738,1,2007-08-16,-72.06616228,43.17765587,NH,SULLIVAN,3,223,1.7,5.25
NLA06608-0743,1,2007-06-26,-93.84703784,45.28365031,MN,WRIGHT,5,406,6.03,2.23
NLA06608-0744,1,2007-07-18,-96.22952255,37.50728425,KS,ELK,100,1243,97.49,0.48
NLA06608-0749,1,2007-07-17,-77.66963872,38.21777874,VA,SPOTSYLVANIA,50,464,13.74,0.53
NLA06608-0751,1,2007-07-25,-84.60955737,35.09506233,TN,POLK,1,99,3.62,2.95
NLA06608-0753,1,2007-07-19,-79.32038612,42.34421131,NY,CHAUTAUQUA,15,367,8.8,2.2
NLA06608-0754,1,2007-07-02,-71.76889368,42.00008215,MA,WORCESTER,3,251,1.15,4.85
NLA06608-0755,1,2007-06-20,-100.0637661,45.17198582,SD,POTTER,1104,2216,114.6,0.42
NLA06608-0756,1,2007-06-25,-97.81889401,34.51995909,OK,STEPHENS,3,326,10.96,0.95
NLA06608-0759,1,2007-08-07,-94.58564751,43.49635854,MN,MARTIN,360,4153,185.4,0.15
NLA06608-0761,1,2007-09-06,-74.28597177,40.76263285,NJ,ESSEX,12,403,54,0.65
NLA06608-0762,1,2007-08-16,-100.8270609,47.61486601,ND,MCLEAN,264,3940,133.2,0.21
NLA06608-0764,1,2007-06-26,-101.6522363,41.21443378,NE,KEITH,58,1386,24.26,1.1
NLA06608-0765,1,2007-06-05,-79.05296653,40.16155115,PA,SOMERSET,29,507,11.39,1.5
NLA06608-0766,1,2007-07-18,-98.58682039,47.07388772,ND,STUTSMAN,40,1673,33.94,1.85
NLA06608-0769,1,2007-07-24,-116.6021502,47.46561683,ID,KOOTENAI,16,384,15.36,1.78
NLA06608-0770,1,2007-05-08,-111.9196013,33.37648429,AZ,MARICOPA,28,1455,6.82,0.59
NLA06608-0771,1,2007-08-13,-93.95778373,46.43678101,MN,CROW WING,20,622,6.4,2.05
NLA06608-0775,1,2007-07-25,-99.48680479,31.77844848,TX,COLEMAN,18,569,1.82,2.5
NLA06608-0779,1,2007-07-31,-97.60321373,43.74155805,SD,MCCOOK,1543,3916,98.5,0.16
NLA06608-0781,1,2007-07-26,-74.78073603,40.95244606,NJ,SUSSEX,34,729,17.92,1.05
NLA06608-0782,1,2007-07-31,-90.74589983,47.97490008,MN,COOK,7,443,3.28,2.05
NLA06608-0783,1,2007-08-14,-84.32400254,40.38121547,OH,Shelby,819,1896,50.93,0.15
NLA06608-0785,1,2007-09-12,-119.5708717,46.87138943,WA,GRANT,15,2621,6.57,2.1
NLA06608-0792,1,2007-08-16,-96.98715489,33.06586113,TX,DENTON,47,760,30.24,0.79
NLA06608-0793,1,2007-06-18,-81.09987899,37.62556948,WV,RALEIGH,19,340,3.07,2.7
NLA06608-0794,1,2007-06-09,-109.8067241,42.94295938,WY,SUBLETTE,3,91,1.06,9.1
NLA06608-0794,2,2007-06-28,-109.8067241,42.94295938,WY,SUBLETTE,1,69,0.46,11.5
NLA06608-0797,1,2007-06-28,-114.854418,39.46727638,NV,WHITE PINE,24,418,4.24,1.53
NLA06608-0802,1,2007-07-20,-71.92427314,42.7054837,MA,WORCESTER,18,361,5.23,1.24
NLA06608-0804,1,2007-08-19,-87.66339204,37.06496556,KY,CHRISTIAN,13,335,5.01,1.78
NLA06608-0805,1,2007-08-22,-73.4471959,41.89706027,CT,LITCHFIELD,51,755,2.27,1.6
NLA06608-0806,1,2007-09-07,-72.33303748,44.32604728,VT,WASHINGTON,20,427,8.32,1.25
NLA06608-0807,1,2007-07-11,-97.67084235,45.4544983,SD,DAY,511,1505,27.5,1.2
NLA06608-0808,1,2007-09-06,-94.20630504,37.80850252,MO,VERNON,126,1748,76.8,0.45
NLA06608-0809,1,2007-07-24,-110.0619092,34.27511413,AZ,NAVAJO,13,546,3.01,2.3
NLA06608-0811,1,2007-07-23,-84.93075504,41.58503646,IN,STEUBEN,51,1224,50.04,1.15
NLA06608-0812,1,2007-06-28,-90.60093891,31.89213905,MS,COPIAH,11,357,6.45,1.36
NLA06608-0815,1,2007-07-17,-84.29700265,32.07003639,GA,SUMTER,39,269,27.2,1.05
NLA06608-0820,1,2007-08-06,-85.58909082,36.04195569,TN,PUTNAM,323,2841,120.8,0.35
NLA06608-0823,1,2007-07-26,-92.42758598,45.50212807,WI,POLK,7,331,2.08,3.95
NLA06608-0824,1,2007-09-05,-96.42019136,36.70285935,OK,OSAGE,22,309,6.23,1.05
NLA06608-0825,1,2007-09-06,-113.5241332,37.65022613,UT,IRON,88,1001,39.7,0.95
NLA06608-0827,1,2007-07-05,-105.1124639,39.99512558,CO,BOULDER,23,543,11.6,1.15
NLA06608-0828,1,2007-07-11,-90.35508478,33.14557832,MS,HUMPHREYS,114,1510,68.4,0.61
NLA06608-0830,1,2007-08-30,-99.4057224,47.3145341,ND,STUTSMAN,1617,15563,272,0.06
NLA06608-0831,1,2007-07-19,-82.68737992,35.06242308,SC,GREENVILLE,4,44,1.3,3.75
NLA06608-0833,1,2007-08-07,-113.79482,48.90066286,MT,GLACIER,1,104,0.79,NA
NLA06608-0834,1,2007-06-01,-111.5104323,33.55658479,AZ,MARICOPA,23,583,8.05,1.73
NLA06608-0836,1,2007-08-29,-109.5195801,35.73708099,AZ,APACHE,51,1184,2.7,1.5
NLA06608-0837,1,2007-07-19,-113.9237405,43.32535916,ID,BLAINE,109,1460,55.58,0.79
NLA06608-0842,1,2007-08-01,-109.5385322,44.98259563,WY,PARK,13,71,1.56,4.35
NLA06608-0843,1,2007-07-18,-87.1410494,33.28828061,AL,TUSCALOOSA,8,196,2.57,2.26
NLA06608-0846,1,2007-08-28,-89.89123137,45.70558294,WI,ONEIDA,39,875,31.84,0.8
NLA06608-0847,1,2007-08-30,-84.49692799,40.52821138,OH,MERCER,395,3572,189.36,0.23
NLA06608-0849,1,2007-07-31,-124.6325273,48.09040077,WA,CLALLAM,5,189,4.7,3.17
NLA06608-0850,1,2007-08-07,-111.3907566,40.76400873,UT,SUMMIT,19,486,2.3,3.4
NLA06608-0851,1,2007-06-05,-99.64100853,45.77329011,SD,MCPHERSON,44,1104,7.8,0.9
NLA06608-0856,1,2007-06-19,-97.17112636,34.28490489,OK,CARTER,31,483,9.47,0.98
NLA06608-0857,1,2007-06-22,-79.76105079,36.17652473,NC,GUILFORD,31,469,12.72,1.15
NLA06608-0859,1,2007-07-05,-88.21979209,42.78877715,WI,RACINE,33,913,11.47,1.25
NLA06608-0860,1,2007-07-19,-91.58457902,41.77555566,IA,JOHNSON,222,6672,11.17,0.32
NLA06608-0860,2,2007-08-21,-91.58457902,41.77555566,IA,JOHNSON,232,1710,6.67,0.35
NLA06608-0862,1,2007-08-08,-90.20943735,46.13959313,WI,IRON,11,654,3.57,2.75
NLA06608-0863,1,2007-07-02,-81.23795266,40.55157389,OH,CARROLL,36,446,14.38,1.04
NLA06608-0864,1,2007-06-25,-102.7554334,38.29933705,CO,KIOWA,11,973,9.22,1.2
NLA06608-0865,1,2007-09-12,-81.90969367,28.0262635,FL,POLK,100,1489,83.52,0.45
NLA06608-0868,1,2007-08-18,-87.85835615,37.61578723,KY,UNION,61,1184,29.48,0.45
NLA06608-0869,1,2007-08-09,-75.02535883,41.41393411,PA,PIKE,44,479,11.66,0.88
NLA06608-0870,1,2007-08-09,-122.0463775,44.31668637,OR,LINN,43,87,0.49,12.51
NLA06608-0871,1,2007-07-12,-96.09372175,45.39184932,MN,SWIFT,407,5378,256.32,0.15
NLA06608-0872,1,2007-06-21,-97.05592896,37.70523851,KS,BUTLER,276,1129,14.32,0.13
NLA06608-0873,1,2007-06-20,-111.2309008,34.78754469,AZ,COCONINO,141,433,9.98,0.14
NLA06608-0874,1,2007-08-30,-86.02363273,43.49984691,MI,NEWAYGO,29,3441,14.16,1.35
NLA06608-0875,1,2007-09-14,-84.93952274,42.42600499,MI,EATON,16,720,6.14,1.75
NLA06608-0877,1,2007-09-13,-114.7186101,33.39339434,AZ,LA PAZ,14,878,11.8,0.78
NLA06608-0878,1,2007-08-01,-95.49202478,46.41279009,MN,OTTER TAIL,18,630,6.11,1.65
NLA06608-0880,1,2007-07-17,-102.1976293,39.61349449,CO,YUMA,134,1463,41.6,0.25
NLA06608-0881,1,2007-07-30,-118.0456408,44.68029866,OR,BAKER,42,513,15.89,1.19
NLA06608-0885,1,2007-07-11,-117.4401855,33.74732977,CA,RIVERSIDE,1386,865,23.04,0.56
NLA06608-0889,1,2007-07-11,-116.5205894,41.21839793,NV,ELKO,204,404,11.93,0.29
NLA06608-0890,1,2007-07-30,-90.41206384,48.04237609,MN,COOK,8,449,3.38,3.5
NLA06608-0891,1,2007-08-18,-103.8250886,41.22739765,NE,KIMBALL,133,1137,30.68,0.2
NLA06608-0893,1,2007-06-28,-81.16283175,40.4600301,OH,CARROLL,14,303,6.96,1.28
NLA06608-0895,1,2007-07-09,-109.3628312,34.36024322,AZ,APACHE,237,520,13.86,0.2
NLA06608-0899,1,2007-06-20,-99.42139052,46.64962378,ND,STUTSMAN,495,4472,69.19,0.55
NLA06608-0900,1,2007-06-18,-88.7625553,38.72322531,IL,MARION,48,700,15.65,1.2
NLA06608-0904,1,2007-07-31,-96.33164966,42.30712511,IA,WOODBURY,135,1603,77.2,0.3
NLA06608-0905,1,2007-06-21,-119.9011897,39.17160197,NV,WASHOE,12,358,1.29,8.9
NLA06608-0906,1,2007-06-12,-110.796597,43.64334502,WY,TETON,1,111,0.83,7.45
NLA06608-0913,1,2007-09-06,-69.22774755,46.36895187,ME,PISCATAQUIS,10,697,3.44,1.89
NLA06608-0914,1,2007-08-02,-67.69930253,44.7665922,ME,WASHINGTON,10,171,1.29,5.53
NLA06608-0915,1,2007-08-08,-96.23531854,47.5788475,MN,POLK,102,1410,37.87,0.85
NLA06608-0916,1,2007-08-08,-105.1064368,38.79133283,CO,TELLER,16,237,1.73,0.6
NLA06608-0918,1,2007-08-14,-70.35478251,45.63536489,ME,SOMERSET,4,244,2.38,2.87
NLA06608-0921,1,2007-06-25,-78.57809968,35.95443189,NC,WAKE,7,340,19.5,0.78
NLA06608-0922,1,2007-06-08,-106.7540577,44.46680722,WY,JOHNSON,12,226,1.24,1.45
NLA06608-0924,1,2007-08-12,-100.5912717,42.53263874,NE,CHERRY,447,14400,98,0.23
NLA06608-0925,1,2007-10-03,-114.4484101,36.11204382,NV,CLARK,1,1160,1.02,11.88
NLA06608-0926,1,2007-08-06,-91.03611959,46.27836202,WI,BAYFIELD,4,252,1.47,6.7
NLA06608-0927,1,2007-08-15,-109.6839624,40.19262068,UT,UINTAH,18,498,2.72,2.75
NLA06608-0929,1,2007-06-16,-113.2957121,46.17967552,MT,GRANITE,14,354,1.56,4.3
NLA06608-0930,1,2007-08-21,-71.50524998,43.53424744,NH,BELKNAP,4,174,1.3,6.45
NLA06608-0933,1,2007-07-31,-118.1504274,43.92762751,OR,MALHEUR,136,775,8.16,1.04
NLA06608-0934,1,2007-08-28,-122.0382458,43.73612725,OR,LANE,1,5,0.07,36.71
NLA06608-0935,1,2007-08-06,-93.4604842,44.6510154,MN,SCOTT,36,1198,18.72,1.15
NLA06608-0938,1,2007-08-07,-86.2884379,43.23106073,MI,MUSKEGON,34,519,11.89,1.46
NLA06608-0940,1,2007-08-17,-103.5255076,41.95740591,NE,SCOTTS BLUFF,37,866,22.56,1.38
NLA06608-0942,1,2007-07-10,-94.60247265,47.07143625,MN,CASS,6,306,2.38,4.05
NLA06608-0943,1,2007-09-11,-84.26596921,34.80731121,GA,FANNIN,5,93,2.29,3.05
NLA06608-0944,1,2007-06-24,-108.0879027,48.20653603,MT,PHILLIPS,523,1419,25.23,0.04
NLA06608-0946,1,2007-08-14,-72.19612696,41.83996337,CT,WINDHAM,30,552,14.96,1.77
NLA06608-0950,1,2007-08-02,-108.1947009,43.16774073,WY,FREMONT,20,234,1.72,5.55
NLA06608-0955,1,2007-06-03,-105.2328863,41.17631286,WY,LARAMIE,10,288,2.78,2.75
NLA06608-0957,1,2007-06-21,-80.56008707,39.30139975,WV,HARRISON,8,276,2.16,4.28
NLA06608-0958,1,2007-08-15,-93.39164891,47.5916096,MN,ITASCA,18,511,8.56,1.65
NLA06608-0961,1,2007-07-25,-116.6865573,47.48939455,ID,KOOTENAI,11,189,3.64,3.53
NLA06608-0962,1,2007-07-17,-111.7317,41.51816888,UT,CACHE,6,190,1.4,6.2
NLA06608-0967,1,2007-07-30,-99.23771294,43.80089109,SD,BRULE,1016,1998,15.5,0.58
NLA06608-0968,1,2007-08-01,-94.90058432,42.73174291,IA,POCAHONTAS,145,3553,47.6,0.32
NLA06608-0970,1,2007-06-10,-109.8706018,43.0004446,WY,SUBLETTE,3,140,0.86,5.5
NLA06608-0971,1,2007-07-26,-85.28406916,40.11693151,IN,DELAWARE,54,787,28.58,1.27
NLA06608-0972,1,2007-07-09,-98.02578504,35.52857379,OK,CANADIAN,619,938,13.36,0.1
NLA06608-0974,1,2007-07-16,-88.19188615,46.47568516,MI,BARAGA,4,101,1.68,5.45
NLA06608-0979,1,2007-05-30,-103.5206581,43.76802869,SD,CUSTER,68,952,3.75,3.52
NLA06608-0980,1,2007-07-12,-88.68475272,37.39564741,IL,POPE,176,923,84,0.4
NLA06608-0982,1,2007-08-14,-71.81133018,44.44651471,VT,ESSEX,6,248,2.08,4.5
NLA06608-0984,1,2007-09-26,-94.93952456,33.88536118,OK,MCCURTAIN,115,878,32.64,0.38
NLA06608-0986,1,2007-07-18,-89.43472797,31.30046077,MS,LAMAR,7,186,5.22,2.46
NLA06608-0987,1,2007-07-30,-85.66354429,41.5778835,IN,ELKHART,40,1800,38.3,0.85
NLA06608-0989,1,2007-07-31,-77.63605473,37.12269729,VA,DINWIDDIE,56,856,65.2,0.4
NLA06608-0990,1,2007-07-30,-94.33981178,46.23667971,MN,CROW WING,40,960,20.32,1.05
NLA06608-0993,1,2007-09-20,-74.44475781,44.15403952,NY,FRANKLIN,1,551,0.53,8.4
NLA06608-0994,1,2007-08-23,-72.08861587,43.10063504,NH,SULLIVAN,5,214,3.74,3.15
NLA06608-0996,1,2007-06-26,-104.8975432,36.47751354,NM,COLFAX,9,449,2.35,NA
NLA06608-0997,1,2007-08-03,-73.1843614,43.7347358,VT,RUTLAND,4,204,1.5,5.55
NLA06608-1001,1,2007-06-15,-80.6282663,34.32056025,SC,KERSHAW,24,416,5.28,1.1
NLA06608-1002,1,2007-06-28,-109.1837945,47.64355769,MT,FERGUS,378,1536,1.14,NA
NLA06608-1003,1,2007-07-23,-86.21029029,42.08118015,MI,VAN BUREN,12,524,3.82,3.55
NLA06608-1005,1,2007-07-19,-77.88158812,37.95715701,VA,LOUISA,40,425,22.88,0.83
NLA06608-1006,1,2007-06-19,-100.0594809,47.23309947,ND,KIDDER,278,3391,34.2,0.38
NLA06608-1007,1,2007-08-02,-83.77648752,38.93435896,OH,BROWN,30,479,9.26,1.5
NLA06608-1008,1,2007-07-12,-112.3069538,47.88008342,MT,TETON,4,86,0.52,4.75
NLA06608-1010,1,2007-08-09,-73.28915784,41.44985958,CT,LITCHFIELD,38,901,22.72,1.2
NLA06608-1012,1,2007-10-17,-93.85323148,40.39202891,MO,HARRISON,41,880,7.19,1.6
NLA06608-1014,1,2007-09-13,-83.84598941,42.58198097,MI,LIVINGSTON,15,568,9.81,4.2
NLA06608-1015,1,2007-08-14,-94.66049019,43.13964644,IA,PALO ALTO,77,1704,66.24,0.42
NLA06608-1016,1,2007-07-23,-96.55655629,35.87344908,OK,CREEK,69,749,21.44,0.6
NLA06608-1018,1,2007-08-02,-90.98970016,47.66725682,MN,COOK,36,1174,7.56,1
NLA06608-1022,1,2007-07-10,-99.05940629,47.13645291,ND,STUTSMAN,553,5003,138.24,0.38
NLA06608-1024,1,2007-08-07,-99.71392205,48.8960231,ND,ROLETTE,19,439,6.66,1.46
NLA06608-1034,1,2007-08-16,-83.3105724,42.74496123,MI,OAKLAND,5,563,1.98,4.45
NLA06608-1035,1,2007-08-14,-94.69023855,43.30580348,IA,EMMET,160,4348,255.6,0.24
NLA06608-1036,1,2007-06-14,-95.2899994,39.01484504,KS,DOUGLAS,94,856,39.89,0.55
NLA06608-1037,1,2007-09-05,-74.13720525,40.30650105,NJ,MONMOUTH,25,441,10.56,1.05
NLA06608-1038,1,2007-08-03,-91.60874473,47.76285371,MN,LAKE,20,561,4,1.6
NLA06608-1039,1,2007-08-28,-84.47502308,33.29231012,GA,FAYETTE,81,1454,125.28,0.23
NLA06608-1041,1,2007-08-16,-119.5926045,47.72869709,WA,DOUGLAS,190,1878,3.31,3.53
NLA06608-1044,1,2007-07-10,-87.94670174,34.83840643,TN,HARDIN,54,344,18.4,1.15
NLA06608-1045,1,2007-08-29,-77.14037466,42.49353258,NY,YATES,6,236,1.26,7.3
NLA06608-1047,1,2007-06-26,-94.30727333,31.19359518,TX,NACOGDOCHES,3,285,9.6,2.27
NLA06608-1052,1,2007-06-27,-99.18240152,39.61456971,KS,PHILLIPS,295,1329,28.66,0.78
NLA06608-1055,1,2007-07-24,-81.46928239,39.92081406,OH,GUERNSEY,88,1477,89.71,0.54
NLA06608-1056,1,2007-09-27,-91.45201074,38.08837452,MO,CRAWFORD,22,464,8.75,2.08
NLA06608-1057,1,2007-08-14,-121.094003,47.26690206,WA,KITTITAS,1,28,0.15,4.89
NLA06608-1058,1,2007-09-05,-122.2142097,42.36491565,OR,KLAMATH,1,171,0.8,6.45
NLA06608-1059,1,2007-07-30,-88.41583313,44.00551584,WI,CALUMET,161,1406,39.8,0.95
NLA06608-1060,1,2007-08-14,-88.83968274,37.66794161,IL,WILLIAMSON,243,2372,155.52,0.41
NLA06608-1060,2,2007-08-14,-88.83968274,37.66794161,IL,WILLIAMSON,246,2213,165.6,0.41
NLA06608-1070,1,2007-07-11,-97.23731774,46.09726783,ND,RICHLAND,774,1183,23.11,1.55
NLA06608-1073,1,2007-08-13,-117.2723703,45.22936379,OR,WALLOWA,3,68,0.34,10.3
NLA06608-1075,1,2007-08-27,-89.47240376,45.35264891,WI,LINCOLN,8,406,4.53,NA
NLA06608-1083,1,2007-06-29,-104.5793379,39.99374059,CO,WELD,530,2784,318.24,0.63
NLA06608-1086,1,2007-08-27,-100.0458254,47.34437749,ND,SHERIDAN,92,3950,13.86,0.51
NLA06608-1087,1,2007-07-20,-82.33960673,35.05636423,SC,GREENVILLE,14,273,3.58,1.53
NLA06608-1089,1,2007-07-20,-114.4032969,47.92615582,MT,LAKE,8,293,1.04,8.2
NLA06608-1091,1,2007-07-16,-99.56622833,46.64554759,ND,KIDDER,90,2503,12.67,1.55
NLA06608-1096,1,2007-08-02,-98.6667271,42.80283231,NE,BOYD,171,665,36.17,0.25
NLA06608-1100,1,2007-06-28,-94.76922848,39.03618262,KS,WYANDOTTE,8,262,2.9,4.28
NLA06608-1101,1,2007-09-09,-74.46409963,41.16921419,NJ,SUSSEX,109,1713,128.74,NA
NLA06608-1102,1,2007-07-16,-91.80243774,48.04272711,MN,ST LOUIS,4,230,2.1,3.95
NLA06608-1103,1,2007-08-28,-83.14039964,40.20925528,OH,DELAWARE,224,6469,10.98,0.41
NLA06608-1107,1,2007-08-27,-99.03925508,45.8905697,SD,MCPHERSON,733,7750,49.03,0.18
NLA06608-1108,1,2007-06-21,-88.46818961,39.3479549,IL,COLES,126,1328,53.64,0.57
NLA06608-1108,2,2007-07-02,-88.46818961,39.3479549,IL,COLES,102,1083,61.02,0.54
NLA06608-1111,1,2007-07-10,-96.29030059,44.43065201,MN,LINCOLN,193,1500,46.22,0.28
NLA06608-1113,1,2007-07-16,-81.29840323,35.79847217,NC,CALDWELL,9,118,7.57,2.25
NLA06608-1114,1,2007-06-21,-88.61259404,30.47158625,MS,JACKSON,63,558,12.5,0.83
NLA06608-1115,1,2007-07-30,-87.52959736,41.63897307,IL,COOK,19,1041,4.42,3.49
NLA06608-1119,1,2007-08-30,-109.6229151,40.75775549,UT,UINTAH,16,265,2.21,1.75
NLA06608-1120,1,2007-08-27,-90.79086629,37.14689417,MO,REYNOLDS,144,165,8.02,1.35
NLA06608-1122,1,2007-07-26,-71.89175564,42.25855906,MA,WORCESTER,9,318,5.92,2.02
NLA06608-1124,1,2007-07-17,-104.6397618,36.60379676,NM,COLFAX,9,433,1.18,NA
NLA06608-1125,1,2007-08-07,-73.45450471,41.93751914,CT,LITCHFIELD,17,315,4.18,3.65
NLA06608-1129,1,2007-06-06,-111.2044517,34.53807855,AZ,COCONINO,12,336,4.32,2.05
NLA06608-1130,1,2007-08-21,-85.20168529,42.61644253,MI,BARRY,65,634,23.68,1.08
NLA06608-1131,1,2007-06-26,-85.0498935,41.67158213,IN,STEUBEN,1,504,6.19,1.68
NLA06608-1134,1,2007-08-07,-95.6552124,46.97285023,MN,BECKER,24,826,9.43,1.3
NLA06608-1141,1,2007-07-09,-118.1208238,34.55063761,CA,LOS ANGELES,45,824,10.16,1.75
NLA06608-1143,1,2007-07-31,-92.16793858,45.723515570000004,WI,POLK,59,768,9.52,NA
NLA06608-1145,1,2007-09-12,-75.86456997,40.1114616,PA,CHESTER,60,724,17.83,0.78
NLA06608-1147,1,2007-07-27,-104.9010317,40.48406381,CO,WELD,775,1414,42.24,0.65
NLA06608-1148,1,2007-07-31,-101.8384538,42.14994307,NE,CHERRY,242,6934,48,0.15
NLA06608-1150,1,2007-07-19,-92.1073,48.1652,MN,ST LOUIS,11,500,3.79,2.35
NLA06608-1151,1,2007-07-17,-109.4367421,34.03321325,AZ,APACHE,129,648,13.72,1.45
NLA06608-1153,1,2007-07-19,-113.9310021,48.57775125,MT,FLATHEAD,3,224,0.25,13.74
NLA06608-1155,1,2007-07-17,-99.63068806,47.07428203,ND,KIDDER,122,3069,28.68,0.95
NLA06608-1162,1,2007-09-06,-83.92048752,44.43080897,MI,OGEMAW,8,541,3.08,3.45
NLA06608-1163,1,2007-07-02,-86.33837152,40.91152674,IN,FULTON,11,778,4.01,2.8
NLA06608-1164,1,2007-09-11,-96.55493352,35.20544322,OK,SEMINOLE,23,424,8.08,0.83
NLA06608-1166,1,2007-08-14,-89.61298609,46.00218518,WI,VILAS,1,197,1.15,7.25
NLA06608-1167,1,2007-09-20,-84.32304093,42.12121846,MI,JACKSON,5,461,2.62,4.4
NLA06608-1170,1,2007-07-18,-111.3838226,41.18833129,UT,MORGAN,6,240,1.22,5.35
NLA06608-1172,1,2007-06-27,-86.21179967,39.27750349,IN,BROWN,4,241,3,2.65
NLA06608-1174,1,2007-08-15,-70.66748588,45.33667139,ME,FRANKLIN,4,298,2.76,3.27
NLA06608-1175,1,2007-08-21,-94.33240543,45.00157961,MN,MEEKER,69,1328,32.11,0.55
NLA06608-1177,1,2007-06-28,-79.04177704,35.03251939,NC,CUMBERLAND,24,328,16.64,1.1
NLA06608-1179,1,2007-08-01,-88.12382987,42.28383032,IL,LAKE,133,2741,349.2,0.3
NLA06608-1181,1,2007-06-26,-78.52879549,35.81387892,NC,WAKE,9,251,82.22,0.6
NLA06608-1183,1,2007-08-29,-110.7617077,40.67877769,UT,DUCHESNE,3,133,1.81,8
NLA06608-1185,1,2007-08-16,-82.77867302,27.84728979,FL,PINELLAS,62,2869,104.53,0.35
NLA06608-1189,1,2007-09-21,-74.67614714,41.70034673,NY,SULLIVAN,9,281,1.87,3.55
NLA06608-1190,1,2007-06-25,-123.3000758,44.08794072,OR,LANE,3,96,6.18,0.85
NLA06608-1191,1,2007-08-06,-97.8223278,30.00789769,TX,HAYS,152,984,48.96,0.78
NLA06608-1195,1,2007-07-02,-86.47388358,41.41506353,IN,MARSHALL,26,753,16.57,1.1
NLA06608-1198,1,2007-07-25,-95.84076097,46.41917873,MN,OTTER TAIL,9,611,2.64,2.05
NLA06608-1199,1,2007-08-15,-84.96745506,39.60633701,IN,UNION,44,836,49.58,0.93
NLA06608-1204,1,2007-08-28,-93.11174318,34.44592488,AR,GARLAND,10,230,5.04,2.93
NLA06608-1206,1,2007-08-02,-86.80571961,46.04071508,MI,DELTA,17,834,2.98,0.8
NLA06608-1207,1,2007-07-26,-92.56439548,45.31578279,WI,POLK,11,240,2.5,3.95
NLA06608-1208,1,2007-07-12,-97.16290101,38.75947482,KS,DICKINSON,182,1340,138.82,0.45
NLA06608-1208,2,2007-07-25,-97.16290101,38.75947482,KS,DICKINSON,148,1237,43.78,0.85
NLA06608-1209,1,2007-08-15,-75.52182529,41.09921102,PA,MONROE,22,437,6.55,1.58
NLA06608-1210,1,2007-08-15,-101.5137215,47.86470218,ND,WARD,75,4184,5.72,NA
NLA06608-1217,1,2007-07-24,-117.3323799,48.27375687,WA,PEND OREILLE,64,547,21.6,0.88
NLA06608-1219,1,2007-08-20,-99.45309149,47.0508466,ND,STUTSMAN,99,3794,38.87,0.28
NLA06608-1220,1,2007-07-11,-88.31948013,35.67385009,TN,HENDERSON,31,478,22.4,0.53
NLA06608-1222,1,2007-07-31,-70.3351834,41.65548495,MA,BARNSTABLE,12,391,10.4,2.3
NLA06608-1223,1,2007-07-24,-93.46829619,43.37516208,IA,WORTH,422,4053,81.6,0.2
NLA06608-1227,1,2007-07-03,-86.00305553,40.49021653,IN,HOWARD,8,487,5.08,2.25
NLA06608-1232,1,2007-08-22,-91.00152146,39.29721636,MO,PIKE,12,483,5.65,2.45
NLA06608-1236,1,2007-08-16,-105.1611962,35.55992713,NM,SAN MIGUEL,52,504,4.75,0.33
NLA06608-1238,1,2007-08-16,-70.52697713,44.04280484,ME,OXFORD,1,131,1.83,5.56
NLA06608-1239,1,2007-07-24,-94.95289584,45.23854717,MN,KANDIYOHI,117,3309,83.38,0.43
NLA06608-1240,1,2007-07-18,-96.50308213,34.52419902,OK,COAL,141,771,28.87,1.1
NLA06608-1241,1,2007-06-23,-79.31994397,36.11835531,NC,ALAMANCE,34,526,14.08,0.98
NLA06608-1242,1,2007-07-10,-87.97829791,43.80794846,WI,SHEBOYGAN,11,849,2.9,4.45
NLA06608-1243,1,2007-08-07,-85.4335164,41.49584791,IN,NOBLE,42,949,35.28,0.92
NLA06608-1244,1,2007-08-07,-100.4927777,42.56509972,NE,CHERRY,253,3772,103.9,0.28
NLA06608-1245,1,2007-06-29,-77.102743,34.93328103,NC,CRAVEN,25,596,17.44,0.3
NLA06608-1255,1,2007-08-15,-98.76204738,45.29000323,SD,EDMUNDS,1326,13825,516,0.1
NLA06608-1256,1,2007-07-17,-96.31123963,38.12541781,KS,GREENWOOD,20,346,2.58,2.23
NLA06608-1258,1,2007-08-22,-85.47563891,43.15032025,MI,KENT,16,712,4.35,1.36
NLA06608-1259,1,2007-06-21,-106.250251,41.37196888,WY,ALBANY,9,129,3.01,3.8
NLA06608-1261,1,2007-06-25,-115.1046656,38.38375695,NV,NYE,32,1014,16.06,NA
NLA06608-1262,1,2007-07-09,-94.32426564,46.56718218,MN,CROW WING,33,788,20.8,0.88
NLA06608-1263,1,2007-08-23,-84.64320588,38.79221156,KY,BOONE,33,453,14,0.9
NLA06608-1266,1,2007-07-12,-119.9976109,42.11998183,OR,LAKE,933,2228,0.93,0.04
NLA06608-1268,1,2007-07-17,-92.46019565,41.47720752,IA,MAHASKA,69,990,37.84,0.54
NLA06608-1269,1,2007-07-24,-121.5362609,38.50785067,CA,SACRAMENTO,646,1911,113.14,0.32
NLA06608-1270,1,2007-08-30,-109.3834683,43.35530141,WY,FREMONT,15,223,1.6,0.78
NLA06608-1271,1,2007-08-07,-95.17278405,43.4613315,IA,DICKINSON,604,3534,98.88,0.4
NLA06608-1273,1,2007-09-07,-74.25538694,40.93548087,NJ,PASSAIC,197,2297,195.84,0.55
NLA06608-1274,1,2007-08-01,-90.34231242,47.91515143,MN,COOK,4,285,1.9,4.6
NLA06608-1278,1,2007-08-21,-98.89293534,48.01890447,ND,RAMSEY,303,1965,29.09,1.28
NLA06608-1279,1,2007-08-26,-106.8487839,36.03990354,NM,RIO ARRIBA,40,496,10.67,1.33
NLA06608-1281,1,2007-07-18,-116.1556177,48.13500634,ID,BONNER,4,400,1.19,4.03
NLA06608-1283,1,2007-06-27,-93.27559075,45.88816389,MN,KANABEC,68,1012,46.37,0.68
NLA06608-1284,1,2007-08-24,-107.4638244,36.82323361,NM,ARCHULETA,5,180,1.19,5.3
NLA06608-1288,1,2007-08-27,-94.00429471,33.7202532,AR,HEMPSTEAD,86,619,45.22,0.48
NLA06608-1292,1,2007-07-20,-95.7860147,39.00193733,KS,SHAWNEE,17,395,7.08,1.25
NLA06608-1295,1,2007-07-12,-107.2214132,33.15857155,NM,SIERRA,138,740,26.08,0.44
NLA06608-1297,1,2007-09-13,-119.6483226,46.69346715,WA,GRANT,17,1235,6.06,2
NLA06608-1300,1,2007-08-15,-104.225471,35.50355494,NM,SAN MIGUEL,5,229,1.59,2.15
NLA06608-1303,1,2007-08-08,-93.52895007,44.23115242,MN,LE SUEUR,817,2338,7.65,2.55
NLA06608-1312,1,2007-09-27,-91.05983943,38.09909757,MO,WASHINGTON,5,287,1.6,4.46
NLA06608-1316,1,2007-08-17,-87.45542965,36.92159955,KY,CHRISTIAN,269,2606,62.4,0.15
NLA06608-1319,1,2007-08-07,-97.52639653,45.11768598,SD,CLARK,241,4791,169.63,0.28
NLA06608-1321,1,2007-08-01,-111.2808196,39.29458754,UT,EMERY,10,168,1.57,5.75
NLA06608-1323,1,2007-06-26,-86.38310821,32.75598701,AL,COOSA,9,233,15.38,1.76
NLA06608-1326,1,2007-08-06,-95.74771639,46.70133763,MN,OTTER TAIL,24,854,1.68,NA
NLA06608-1329,1,2007-08-08,-116.1697398,45.06812814,ID,ADAMS,9,181,0.11,NA
NLA06608-1332,1,2007-08-21,-87.20570041,36.98625493,KY,TODD,148,932,19.64,0.2
NLA06608-1333,1,2007-09-24,-73.59007456,43.4546224,NY,WASHINGTON,3,166,1.34,6.8
NLA06608-1334,1,2007-07-31,-84.80370819,45.41454518,MI,EMMET,7,388,3,2
NLA06608-1334,2,2007-08-14,-84.80370819,45.41454518,MI,EMMET,7,314,2.85,1.45
NLA06608-1336,1,2007-09-19,-96.82324072,36.38727183,OK,PAWNEE,94,1136,49.86,0.38
NLA06608-1338,1,2007-06-27,-109.1798402,46.01155947,MT,STILLWATER,182,4316,4.09,NA
NLA06608-1339,1,2007-08-30,-104.9523623,40.22292361,CO,WELD,184,3372,147.6,0.32
NLA06608-1342,1,2007-07-17,-92.04084194,47.74255874,MN,ST LOUIS,12,279,3.78,1.5
NLA06608-1344,1,2007-07-10,-112.5192316,48.39247752,MT,PONDERA,27,419,6.3,1.15
NLA06608-1346,1,2007-07-12,-79.49911328,39.46919944,WV,PRESTON,3,125,2.16,4.3
NLA06608-1347,1,2007-06-28,-92.0010507,47.06936125,MN,ST LOUIS,12,551,5.07,2.65
NLA06608-1348,1,2007-08-08,-81.99701482,36.57979268,VA,WASHINGTON,5,396,1.31,4.3
NLA06608-1349,1,2007-08-23,-81.35534067,28.63214331,FL,ORANGE,30,804,27.2,1.15
NLA06608-1354,1,2007-07-28,-108.1327104,45.18177616,MT,BIG HORN,6,480,3.63,4.56
NLA06608-1355,1,2007-07-03,-86.40554386,41.2045164,IN,MARSHALL,5,584,3.84,1.75
NLA06608-1355,2,2007-08-21,-86.40554386,41.2045164,IN,MARSHALL,4,462,3.42,2.55
NLA06608-1356,1,2007-08-13,-94.97046064,35.52043358,OK,SEQUOYAH,21,416,4.92,NA
NLA06608-1358,1,2007-08-28,-89.57932002,46.47136195,MI,GOGEBIC,11,288,7.64,2.75
NLA06608-1358,2,2007-09-18,-89.57932002,46.47136195,MI,GOGEBIC,7,359,4.64,2.5
NLA06608-1359,1,2007-07-31,-83.96549218,40.18853553,OH,CHAMPAIGN,108,1166,34.85,0.61
NLA06608-1360,1,2007-08-19,-101.5543964,40.43031936,NE,CHASE,60,734,49.92,0.85
NLA06608-1364,1,2007-06-20,-86.3816758,35.37133652,TN,BEDFORD,213,2072,103.2,0.38
NLA06608-1365,1,2007-08-21,-76.06888458,42.97430171,NY,ONONDAGA,13,257,5.36,1.55
NLA06608-1367,1,2007-08-14,-96.61488782,44.82453402,SD,DEUEL,242,5338,184,0.12
NLA06608-1368,1,2007-09-18,-96.77580307,33.73044411,TX,GRAYSON,110,1180,32.2,0.4
NLA06608-1369,1,2007-06-21,-79.8531667,36.15830485,NC,GUILFORD,50,679,30.08,0.63
NLA06608-1370,1,2007-08-31,-86.4262233,43.70497197,MI,OCEANA,39,1063,16.16,1.45
NLA06608-1372,1,2007-09-17,-98.49130804,35.19858711,OK,CADDO,113,878,62.64,0.63
NLA06608-1375,1,2007-09-04,-82.97903314,40.43821209,OH,MORROW,79,2169,63.94,0.3
NLA06608-1376,1,2007-09-26,-90.92375999,37.93823147,MO,WASHINGTON,18,346,9.12,1.89
NLA06608-1377,1,2007-07-22,-113.5499319,45.86796274,MT,BEAVERHEAD,8,101,0.87,6.3
NLA06608-1380,1,2007-07-18,-104.6630512,36.57446101,NM,COLFAX,21,524,2.77,3.25
NLA06608-1383,1,2007-08-22,-95.11805454,45.30107859,MN,KANDIYOHI,35,1444,21.28,0.85
NLA06608-1387,1,2007-07-20,-85.5734717,42.18668508,MI,KALAMAZOO,25,994,9.97,0.95
NLA06608-1389,1,2007-08-07,-75.59661445,38.38038763,MD,WICOMICO,86,2506,52.85,0.7
NLA06608-1389,2,2007-08-29,-75.59661445,38.38038763,MD,WICOMICO,51,2919,67.68,0.6
NLA06608-1390,1,2007-07-19,-95.39655084,45.91676304,MN,DOUGLAS,15,553,5.59,1.45
NLA06608-1391,1,2007-09-05,-81.3860772,41.32867877,OH,PORTAGE,172,1360,67.97,0.33
NLA06608-1396,1,2007-06-21,-87.28855765,36.0828954,TN,DICKSON,19,255,5.12,1.46
NLA06608-1397,1,2007-07-10,-116.7467274,33.24145034,CA,SAN DIEGO,367,3559,210.6,0.2
NLA06608-1398,1,2007-08-17,-87.08228263,46.43163694,MI,ALGER,24,624,7.87,0.8
NLA06608-1401,1,2007-07-11,-77.17855996,40.80373555,PA,SNYDER,29,494,37.3,0.55
NLA06608-1403,1,2007-07-02,-105.0337077,40.43327881,CO,LARIMER,7,389,1.93,2.35
NLA06608-1413,1,2007-07-11,-81.73898503,28.91616949,FL,LAKE,25,1614,49.2,0.5
NLA06608-1414,1,2007-08-28,-72.21921899,41.92400456,CT,WINDHAM,17,319,10.48,2
NLA06608-1417,1,2007-07-31,-121.0935467,38.3383223,CA,SACRAMENTO,7,251,1.99,4.4
NLA06608-1420,1,2007-09-18,-96.23064723,35.1386532,OK,HUGHES,112,1154,13.38,0.18
NLA06608-1421,1,2007-07-17,-75.71879453,39.55390324,DE,NEW CASTLE,41,1100,75.6,0.36
NLA06608-1425,1,2007-08-07,-122.9725593,47.19204698,WA,MASON,22,468,9.71,1.41
NLA06608-1426,1,2007-07-23,-124.2460047,43.45220479,OR,COOS,35,557,12.37,1.15
NLA06608-1432,1,2007-06-19,-96.87937904,34.56754654,OK,MURRAY,91,754,5.16,0.75
NLA06608-1434,1,2007-08-01,-84.97760482,45.16506431,MI,CHARLEVOIX,5,458,2.31,3.75
NLA06608-1435,1,2007-08-01,-88.10342481,42.19692077,IL,LAKE,50,1260,9.4,1.3
NLA06608-1436,1,2007-06-21,-99.51438874,32.03729676,TX,COLEMAN,20,478,4.72,1.14
NLA06608-1439,1,2007-07-17,-110.2260262,40.29789402,UT,DUCHESNE,12,273,3.33,3.35
NLA06608-1445,1,2007-07-18,-118.8521689,42.91835392,OR,HARNEY,2670,5009,16.67,0.76
NLA06608-1446,1,2007-08-29,-122.0175362,43.79630195,OR,LANE,4,228,0.78,NA
NLA06608-1447,1,2007-07-18,-93.1265767,45.07363846,MN,RAMSEY,13,760,5.09,2.1
NLA06608-1450,1,2007-07-24,-85.28224429,43.61999552,MI,MECOSTA,10,469,2.94,2.79
NLA06608-1454,1,2007-07-25,-95.71390587,45.84991802,MN,DOUGLAS,125,2341,2.82,3.9
NLA06608-1455,1,2007-08-13,-107.9174634,39.04408399,CO,DELTA,37,429,8.8,2.4
NLA06608-1460,1,2007-07-26,-93.23879955,40.75747354,IA,WAYNE,22,781,4.46,2.14
NLA06608-1461,1,2007-09-26,-118.7415562,37.59934642,CA,MONO,47,708,18.22,2.4
NLA06608-1462,1,2007-08-20,-106.0071156,46.53835681,MT,CUSTER,450,1404,26.8,0.06
NLA06608-1465,1,2007-08-21,-75.58090694,40.87358233,PA,MONROE,5,497,5.97,3.9
NLA06608-1469,1,2007-07-10,-81.89267614,33.29943972,GA,RICHMOND,112,576,65.52,0.55
NLA06608-1473,1,2007-07-22,-116.8933801,47.89085231,ID,KOOTENAI,8,181,2.01,4.24
NLA06608-1476,1,2007-06-14,-105.0447684,39.74858029,CO,DENVER,183,1891,62,0.2
NLA06608-1481,1,2007-08-14,-121.1629233,40.4943852,CA,LASSEN,3,135,0.49,9.89
NLA06608-1482,1,2007-07-24,-83.65565657,30.96113096,GA,BROOKS,80,1099,23.52,0.73
NLA06608-1483,1,2007-07-25,-105.7469295,40.05555836,CO,GRAND,13,274,4.81,2.78
NLA06608-1484,1,2007-08-26,-93.63792628,35.56344263,AR,JOHNSON,11,105,3.8,1.76
NLA06608-1487,1,2007-08-20,-83.58492288,42.21592161,MI,WASHTENAW,61,1071,14.59,1.93
NLA06608-1488,1,2007-07-31,-99.69530507,34.73428918,OK,HARMON,160,3409,114.62,0.28
NLA06608-1489,1,2007-08-29,-122.5690307,46.98630288,WA,PIERCE,18,721,17.94,1.31
NLA06608-1492,1,2007-06-28,-85.19021469,39.27166676,IN,RIPLEY,41,758,40.61,0.61
NLA06608-1496,1,2007-09-06,-97.58547265,33.66930447,TX,MONTAGUE,16,356,12.98,1.23
NLA06608-1499,1,2007-08-08,-85.4301129,41.24575191,IN,WHITLEY,17,483,2.91,4.05
NLA06608-1504,1,2007-08-27,-90.35313417,36.97055086,MO,WAYNE,68,1199,155.08,0.46
NLA06608-1508,1,2007-08-20,-103.6053539,36.42564729,NM,UNION,313,1680,11.74,0.38
NLA06608-1510,1,2007-08-17,-105.0491133,47.82117438,MT,RICHLAND,653,2440,28.48,0.87
NLA06608-1511,1,2007-06-12,-98.61521182,45.53504992,SD,BROWN,373,1446,5.24,2.45
NLA06608-1515,1,2007-08-29,-86.06684183,42.4782951,MI,ALLEGAN,33,845,11.6,1.65
NLA06608-1517,1,2007-08-01,-77.39673538,38.54281635,VA,PRINCE WILLIAM,14,339,6.38,1.46
NLA06608-1521,1,2007-08-14,-111.8535786,42.23317529,ID,FRANKLIN,113,1351,82.51,0.71
NLA06608-1524,1,2007-06-12,-98.33930518,34.37370438,OK,COTTON,157,968,7.72,0.26
NLA06608-1527,1,2007-08-08,-94.94774508,43.45913401,IA,DICKINSON,587,5191,381.6,0.09
NLA06608-1529,1,2007-06-19,-118.2702746,40.69367958,NV,PERSHING,55,649,6.04,1.2
NLA06608-1532,1,2007-07-24,-90.39676778,40.98641214,IL,KNOX,59,6203,42.66,1.06
NLA06608-1537,1,2007-07-15,-116.6384102,48.1617266,ID,BONNER,8,138,2.18,2.7
NLA06608-1538,1,2007-07-26,-78.65197531,39.7038049,MD,ALLEGANY,1,252,2.62,3.2
NLA06608-1544,1,2007-07-25,-93.63628619,42.27012122,IA,HAMILTON,69,2228,26.64,0.42
NLA06608-1556,1,2007-08-14,-87.18335673,39.00356446,IN,GREENE,19,474,5.39,2.32
NLA06608-1558,1,2007-09-12,-68.22649939,44.87906853,ME,HANCOCK,8,280,2.98,NA
NLA06608-1560,1,2007-08-21,-94.60523041,32.76230788,TX,MORRIS,42,852,27.47,0.95
NLA06608-1561,1,2007-06-19,-81.07000814,37.67100497,WV,RALEIGH,10,263,3.24,2.1
NLA06608-1562,1,2007-06-11,-110.2208282,42.59773028,WY,SUBLETTE,16,348,2.94,2.32
NLA06608-1564,1,2007-06-26,-99.07349782,35.16889537,OK,WASHITA,161,1159,12.8,0.15
NLA06608-1568,1,2007-07-10,-99.56836014,36.53187298,OK,WOODWARD,115,760,11.49,0.31
NLA06608-1569,1,2007-08-14,-81.49933161,27.74198501,FL,POLK,22,978,19.47,0.65
NLA06608-1572,1,2007-08-20,-87.52287716,37.2690553,KY,HOPKINS,26,420,4.45,1.83
NLA06608-1575,1,2007-07-24,-97.78599752,45.18456035,SD,DAY,215,2503,88.2,0.68
NLA06608-1576,1,2007-09-09,-93.9527628,38.3067683,MO,HENRY,255,1344,68.4,0.38
NLA06608-1577,1,2007-07-19,-110.0007541,34.18074648,AZ,NAVAJO,16,484,4.32,3.85
NLA06608-1578,1,2007-08-21,-104.9019583,45.18292402,MT,CARTER,110,1062,23.36,1.13
NLA06608-1579,1,2007-07-24,-85.03064639,41.68840425,IN,STEUBEN,7,501,2.26,3.49
NLA06608-1586,1,2007-07-10,-71.64332202,41.6889871,RI,KENT,7,369,2.96,NA
NLA06608-1593,1,2007-08-08,-112.4185161,34.587214350000004,AZ,YAVAPAI,126,746,6.34,2.75
NLA06608-1595,1,2007-06-28,-105.0386785,40.18092494,CO,WELD,18,392,5,1.55
NLA06608-1596,1,2007-08-20,-102.414217,41.75274586,NE,GARDEN,1491,26100,684,0.15
NLA06608-1600,1,2007-07-19,-109.0848391,48.31132355,MT,BLAINE,63,1011,13.01,1.95
NLA06608-1602,1,2007-05-30,-111.2821257,33.58147205,AZ,MARICOPA,18,474,4.25,2.13
NLA06608-1608,1,2007-08-26,-93.38700366,32.40169424,LA,WEBSTER,64,498,31.52,0.83
NLA06608-1610,1,2007-08-15,-109.7887823,45.08626125,MT,CARBON,3,48,0.5,NA
NLA06608-1617,1,2007-08-08,-122.7050326,47.57177224,WA,KITSAP,45,239,7.25,3.27
NLA06608-1623,1,2007-07-19,-96.811485,30.24052123,TX,LEE,134,1231,24.16,0.25
NLA06608-1626,1,2007-08-08,-86.43464751,43.9294318,MI,MASON,30,623,14.78,1.95
NLA06608-1630,1,2007-07-12,-100.125119,28.57555508,TX,MAVERICK,57,806,21.44,0.41
NLA06608-1631,1,2007-08-08,-109.297264,40.76550232,UT,UINTAH,130,1209,27.58,1.82
NLA06608-1633,1,2007-07-13,-112.8818444,44.95420653,MT,BEAVERHEAD,19,366,1.52,3.6
NLA06608-1637,1,2007-08-28,-75.13142213,41.69516992,PA,WAYNE,32,440,19.87,1.45
NLA06608-1638,1,2007-08-06,-121.8732089,44.37178143,OR,LINN,6,50,0.23,15.13
NLA06608-1640,1,2007-07-26,-92.96597494,38.16675267,MO,MORGAN,90,777,23.2,0.78
NLA06608-1641,1,2007-06-19,-111.4026965,35.01980463,AZ,COCONINO,185,845,5.66,0.19
NLA06608-1643,1,2007-07-19,-85.52570292,42.47147986,MI,BARRY,5,488,3.17,3.5
NLA06608-1652,1,2007-06-13,-87.19195879,36.25057107,TN,MONTGOMERY,99,848,57.2,0.78
NLA06608-1654,1,2007-07-09,-87.46065203,46.57403434,MI,MARQUETTE,6,354,4.48,2.25
NLA06608-1655,1,2007-06-06,-99.20744764,45.27488186,SD,EDMUNDS,896,12241,542.4,0.12
NLA06608-1668,1,2007-07-17,-83.36502827,35.93942679,TN,HAMBLEN,18,269,18.72,1.3
NLA06608-1672,1,2007-09-05,-96.45333515,32.94495679,TX,ROCKWALL,15,510,100.51,0.15
NLA06608-1674,1,2007-07-27,-110.8356239,44.54399881,WY,TETON,35,1043,2.32,3.05
NLA06608-1675,1,2007-07-23,-106.4529904,40.70732923,CO,JACKSON,16,521,3.01,4.05
NLA06608-1679,1,2007-07-15,-84.21804073,42.27599914,MI,JACKSON,8,366,3.12,2.25
NLA06608-1684,1,2007-06-27,-86.7140735,39.72648692,IN,PUTNAM,17,338,22.63,1.13
NLA06608-1684,2,2007-08-21,-86.7140735,39.72648692,IN,PUTNAM,53,612,25.16,1.22
NLA06608-1687,1,2007-07-09,-97.20984727,44.92879744,SD,CODINGTON,441,918,7.52,0.75
NLA06608-1690,1,2007-09-10,-85.78652164,44.63943331,MI,GRAND TRAVERSE,7,317,4.63,3.95
NLA06608-1695,1,2007-09-06,-110.4052879,40.80705076,UT,SUMMIT,19,216,2.29,3.7
NLA06608-1703,1,2007-08-28,-98.12948201,44.56839036,SD,BEADLE,304,1949,32.04,0.28
NLA06608-1704,1,2007-09-05,-94.41073448,37.66812885,MO,VERNON,42,749,32.54,1
NLA06608-1706,1,2007-09-17,-84.77214787,43.8526781,MI,CLARE,6,563,2.32,NA
NLA06608-1707,1,2007-07-22,-85.89436967,41.90886578,MI,CASS,8,723,3.29,1.5
NLA06608-1711,1,2007-09-04,-84.28783121,34.45201248,GA,PICKENS,12,190,4.32,2.2
NLA06608-1715,1,2007-09-06,-100.6327156,29.17488107,TX,KINNEY,27,582,8.8,1.43
NLA06608-1717,1,2007-09-25,-120.2096368,37.66235766,CA,MARIPOSA,3,79,0.88,5.5
NLA06608-1719,1,2007-06-18,-99.36144816,45.69469839,SD,MCPHERSON,441,8803,314.61,0.11
NLA06608-1723,1,2007-06-20,-104.6435242,41.12635244,WY,LARAMIE,1537,3516,2.82,3.45
NLA06608-1724,1,2007-08-07,-89.74974737,40.6317324,IL,PEORIA,55,1282,55.28,0.91
NLA06608-1733,1,2007-07-12,-81.8367232,28.82529643,FL,MARION,45,3516,167.04,0.35
NLA06608-1735,1,2007-09-11,-93.43654813,30.83484459,LA,BEAUREGARD,60,679,62,0.95
NLA06608-1736,1,2007-08-01,-94.63032824,42.48541393,IA,CALHOUN,53,1453,38.2,0.58
NLA06608-1739,1,2007-07-20,-105.4935103,39.96491779,CO,BOULDER,7,157,2.23,5
NLA06608-1740,1,2007-08-10,-93.59341677,38.93960606,MO,LAFAYETTE,67,949,27.13,0.76
NLA06608-1741,1,2007-07-09,-75.51763692,38.98848369,DE,KENT,124,2156,116.4,0.36
NLA06608-1742,1,2007-07-18,-88.57570293,46.61381657,MI,BARAGA,7,244,3.37,4.95
NLA06608-1748,1,2007-07-31,-106.3934507,39.27108433,CO,LAKE,4,131,1.04,5.25
NLA06608-1753,1,2007-08-22,-112.7840699,37.52420141,UT,KANE,6,267,1.06,NA
NLA06608-1755,1,2007-08-20,-85.65000607,41.22680207,IN,KOSCIUSKO,30,646,12.6,1.35
NLA06608-1758,1,2007-07-23,-88.09978566,47.4572505,MI,KEWEENAW,8,892,3.06,NA
NLA06608-1771,1,2007-08-28,-86.04986016,42.38300259,MI,VAN BUREN,10,603,4.03,2.7
NLA06608-1775,1,2007-08-24,-84.27550077,38.71328174,KY,PENDLETON,74,548,23,0.65
NLA06608-1781,1,2007-10-02,-122.730427,38.07682398,CA,MARIN,58,789,14.56,0.6
NLA06608-1782,1,2007-09-13,-83.79582456,42.51691372,MI,LIVINGSTON,32,606,17.44,0.95
NLA06608-1789,1,2007-09-19,-78.62336887,40.35385773,PA,CAMBRIA,1,501,1.35,4.25
NLA06608-1791,1,2007-08-08,-84.89743874,36.00712806,TN,CUMBERLAND,5,401,1.63,4.03
NLA06608-1793,1,2007-07-23,-116.5643475,47.52073005,ID,KOOTENAI,9,139,5.45,2.75
NLA06608-1800,1,2007-08-27,-94.07719555,32.67017525,LA,CADDO,50,604,43.63,0.78
NLA06608-1802,1,2007-09-12,-83.0854123,42.724557,MI,MACOMB,18,536,5.3,1.32
NLA06608-1804,1,2007-06-27,-97.59469662,35.56351286,OK,OKLAHOMA,120,699,25.47,1.15
NLA06608-1808,1,2007-09-13,-92.27375111,34.53937366,AR,SALINE,48,628,24.8,0.64
NLA06608-1810,1,2007-07-16,-112.0878211,41.37561834,UT,BOX ELDER,69,611,14.8,0.55
NLA06608-1811,1,2007-06-25,-99.26440854,45.85043385,SD,MCPHERSON,27,1558,7.57,1.41
NLA06608-1812,1,2007-08-27,-88.07467739,35.41307522,KY,LIVINGSTON,61,303,13.68,2.3
NLA06608-1818,1,2007-07-10,-109.5044313,42.92535091,WY,SUBLETTE,7,90,0.68,8.09
NLA06608-1821,1,2007-08-09,-76.8537467,39.21641749,MD,HOWARD,255,2709,197,0.3
NLA06608-1824,1,2007-07-25,-99.78514802,37.38533354,KS,CLARK,56,824,25.14,0.65
NLA06608-1825,1,2007-09-11,-81.65126772,27.94018842,FL,POLK,45,839,16.2,0.55
NLA06608-1835,1,2007-07-24,-84.92309094,41.58028332,IN,STEUBEN,16,531,2.02,3.05
NLA06608-1836,1,2007-08-13,-102.4533862,42.40712576,NE,SHERIDAN,246,2766,115.56,0.36
NLA06608-1839,1,2007-09-20,-83.65078368,32.48418587,GA,HOUSTON,20,420,12.53,1.03
NLA06608-1840,1,2007-08-15,-89.35469451,38.94599172,IL,BOND,216,1361,72,0.46
NLA06608-1851,1,2007-08-21,-105.2232407,40.07823959,CO,BOULDER,23,228,6.05,1.07
NLA06608-1856,1,2007-07-24,-109.75936,48.96606399,MT,HILL,1129,3159,5.18,0.5
NLA06608-1857,1,2007-07-25,-114.1200149,48.2461517,MT,FLATHEAD,1,198,1.25,6.95
NLA06608-1861,1,2007-08-01,-81.49557857,29.45531325,FL,PUTNAM,75,1216,55.32,0.65
NLA06608-1862,1,2007-07-12,-119.1737894,41.9306954,NV,HUMBOLDT,520,1058,7.6,0.1
NLA06608-1863,1,2007-09-07,-92.47015483,31.10386776,LA,RAPIDES,32,506,61.44,1.33
NLA06608-1866,1,2007-07-23,-109.2607748,44.78748289,WY,PARK,11,232,4.36,NA
NLA06608-1867,1,2007-07-18,-85.97905159,41.04149545,IN,KOSCIUSKO,74,2091,52.7,0.53
NLA06608-1868,1,2007-08-15,-96.71830238,34.95364916,OK,SEMINOLE,21,676,9,1.8
NLA06608-1871,1,2007-07-19,-85.8149094,33.32111369,AL,CLAY,5,139,3.1,1.65
NLA06608-1873,1,2007-09-11,-123.2647195,47.48799465,WA,MASON,1,37,0.46,9.16
NLA06608-1874,1,2007-08-14,-111.4149738,40.95544299,UT,SUMMIT,26,374,3.56,2.85
NLA06608-1879,1,2007-08-22,-97.15487079,44.53735651,SD,HAMLIN,328,4075,109.66,0.27
NLA06608-1884,1,2007-07-18,-91.53532783,41.79161289,IA,JOHNSON,39,2334,25.44,0.95
NLA06608-1893,1,2007-07-12,-117.1542995,41.40500676,NV,HUMBOLDT,302,581,6.94,0.19
NLA06608-1894,1,2007-08-08,-121.7456252,44.02665452,OR,DESCHUTES,36,162,0.45,NA
NLA06608-1906,1,2007-07-20,-71.55317818,41.8621338,RI,PROVIDENCE,14,368,2.1,1.33
NLA06608-1908,1,2007-08-07,-86.6622935,38.06356571,IN,PERRY,10,185,0.94,4.95
NLA06608-1910,1,2007-07-11,-87.80067574,45.87339726,MI,DICKINSON,37,830,22.24,0.8
NLA06608-1930,1,2007-07-24,-111.4734759,44.10051186,ID,FREMONT,31,178,1.48,3.3
NLA06608-1936,1,2007-09-13,-90.78180772,38.79320182,MO,ST CHARLES,89,788,31.4,0.4
NLA06608-1948,1,2007-08-21,-100.645836,42.53347335,NE,CHERRY,486,2981,20.88,0.84
NLA06608-1953,1,2007-08-25,-113.4075253,47.09945654,MT,MISSOULA,15,226,9.17,2.13
NLA06608-1958,1,2007-08-27,-122.4216059,43.66297627,OR,LANE,10,18,0.67,4.63
NLA06608-1959,1,2007-06-11,-98.27345753,45.74264146,SD,BROWN,493,1494,17.49,0.51
NLA06608-1960,1,2007-08-23,-95.95265017,36.89068214,OK,WASHINGTON,108,403,14.85,0.3
NLA06608-1968,1,2007-08-23,-108.1899505,48.13399568,MT,PHILLIPS,255,2076,94.93,0.24
NLA06608-1975,1,2007-08-08,-95.12645329,43.34114476,IA,DICKINSON,18,739,4.98,2.46
NLA06608-1985,1,2007-07-21,-116.7986927,47.44868765,ID,KOOTENAI,3,27,0.66,10.45
NLA06608-1989,1,2007-08-02,-114.8909997,42.20289954,ID,TWIN FALLS,71,658,17.12,1.45
NLA06608-1992,1,2007-09-20,-96.06121126,32.45275022,TX,VAN ZANDT,108,2041,104.4,0.4
NLA06608-1998,1,2007-08-06,-88.11725533,46.60064001,MI,MARQUETTE,13,430,3.32,2.75
NLA06608-1998,2,2007-09-11,-88.11725533,46.60064001,MI,MARQUETTE,8,326,5.32,1.98
NLA06608-2005,1,2007-07-12,-116.1124743,42.29737384,ID,OWYHEE,276,1398,194.4,0.3
NLA06608-2007,1,2007-06-24,-97.32017864,45.75699008,SD,MARSHALL,59,1331,6.72,1.11
NLA06608-2010,1,2007-07-19,-89.30335606,31.19633242,MS,FORREST,24,494,14.3,1.61
NLA06608-2027,1,2007-06-20,-105.6303731,42.23979744,WY,ALBANY,49,551,3.95,1.13
NLA06608-2036,1,2007-07-11,-93.5509726,41.43839158,IA,WARREN,11,278,4.41,1.56
NLA06608-2037,1,2007-06-14,-118.6723206,39.58892136,NV,CHURCHILL,175,1190,19.2,0.42
NLA06608-2039,1,2007-08-09,-94.8984756,43.10411616,IA,PALO ALTO,277,4691,338.4,0.13
NLA06608-2049,1,2007-09-17,-115.03453880000001,48.02025253,MT,LINCOLN,5,276,1.42,4.15
NLA06608-2056,1,2007-08-22,-93.92037248,41.46950026,IA,MADISON,572,2082,92.16,0.37
NLA06608-2072,1,2007-08-30,-95.80076799,32.25404093,TX,HENDERSON,78,1134,105.84,0.68
NLA06608-2074,1,2007-06-13,-84.54449705,30.43252366,FL,LEON,72,1004,61.09,0.65
NLA06608-2076,1,2007-09-12,-93.42662016,35.15138649,AR,YELL,11,124,3.59,1.93
NLA06608-2078,1,2007-08-24,-88.08997243,46.25503439,MI,MARQUETTE,7,569,8.64,2.59
NLA06608-2082,1,2007-09-04,-122.6008217,42.15139597,OR,JACKSON,17,496,3.57,2.1
NLA06608-2086,1,2007-08-29,-71.95362413,44.76204445,VT,ORLEANS,5,276,1.59,4.15
NLA06608-2087,1,2007-07-25,-97.41707065,45.55715378,SD,DAY,197,2859,64.51,0.34
NLA06608-2091,1,2007-07-02,-86.4904329,32.35269226,AL,ELMORE,53,401,20.43,0.99
NLA06608-2092,1,2007-09-15,-91.70157522,32.71215655,LA,MOREHOUSE,135,1804,84.96,0.43
NLA06608-2094,1,2007-07-11,-97.08741125,29.09294251,TX,DE WITT,35,438,20.64,1.07
NLA06608-2095,1,2007-07-08,-109.4410083,42.2494978,WY,SUBLETTE,48,316,2.89,0.79
NLA06608-2103,1,2007-06-13,-99.90500153,44.8372406,SD,SULLY,170,3503,8.13,0.79
NLA06608-2114,1,2007-07-25,-79.23033272,39.68531765,MD,GARRETT,1,402,3.41,2.7
NLA06608-2117,1,2007-09-25,-81.62199477,28.62097337,FL,LAKE,169,5572,149.6,0.25
NLA06608-2120,1,2007-07-25,-98.31569017,32.59300712,TX,PALO PINTO,28,869,13.47,1.16
NLA06608-2123,1,2007-08-13,-97.1167168,44.32794024,SD,BROOKINGS,613,3009,166.63,0.24
NLA06608-2131,1,2007-06-26,-99.10161914,45.89624924,SD,MCPHERSON,14,1820,13.44,0.43
NLA06608-2134,1,2007-08-01,-122.7435687,45.89266323,WA,COWLITZ,21,211,6.15,1.71
NLA06608-2135,1,2007-08-20,-96.47788918,44.70838784,SD,DEUEL,24,1117,15.22,1.45
NLA06608-2152,1,2007-10-02,-93.32597024,37.85925631,MO,HICKORY,29,535,23.83,1.61
NLA06608-2154,1,2007-07-23,-86.94775581,31.26784195,AL,CONECUH,112,1007,46.4,0.59
NLA06608-2155,1,2007-07-25,-85.02364851,41.627105,IN,STEUBEN,1,644,1.46,2.5
NLA06608-2162,1,2007-07-09,-71.57318015,41.51134268,RI,WASHINGTON,21,295,3.74,2.48
NLA06608-2170,1,2007-08-24,-112.4310378,47.30587695,MT,LEWIS AND CLARK,65,5109,3.96,NA
NLA06608-2177,1,2007-09-14,-114.7318229,48.671943,MT,LINCOLN,3,334,1.39,5.45
NLA06608-2185,1,2007-07-19,-119.5263528,38.66086617,NV,DOUGLAS,15,188,4.2,2.6
NLA06608-2187,1,2007-07-10,-87.35441691,33.45373979,AL,JEFFERSON,20,366,14.96,1.25
NLA06608-2193,1,2007-08-22,-124.0354961,46.41950629,WA,PACIFIC,15,294,1.66,NA
NLA06608-2196,1,2007-08-09,-86.46070725,39.29388434,IN,MONROE,15,407,3.38,2.65
NLA06608-2217,1,2007-06-05,-111.0896969,34.4202345,AZ,COCONINO,9,300,2.79,2.98
NLA06608-2219,1,2007-07-10,-86.40845658,41.29977616,IN,MARSHALL,33,634,20.52,1.17
NLA06608-2241,1,2007-09-06,-117.3189991,48.15402125,WA,PEND OREILLE,9,256,1.13,5.63
NLA06608-2250,1,2007-07-29,-110.6285367,44.3017541,WY,TETON,11,140,0.7,9.4
NLA06608-2253,1,2007-07-12,-75.50048849,38.96688176,DE,KENT,86,3591,30.08,0.87
NLA06608-2257,1,2007-08-24,-122.7843969,47.40930776,WA,KITSAP,6,214,1.91,4.72
NLA06608-2266,1,2007-06-23,-106.7589307,44.18421481,WY,JOHNSON,21,350,1.62,2
NLA06608-2267,1,2007-08-06,-85.30057505,41.51785892,IN,NOBLE,25,793,8.5,1.75
NLA06608-2283,1,2007-07-17,-85.78969754,41.28362106,IN,KOSCIUSKO,7,559,3.43,3.15
NLA06608-2305,1,2007-07-16,-116.5279847,48.18443003,ID,BONNER,9,329,6.54,2.31
NLA06608-2322,1,2007-08-23,-111.3273337,41.5055322,UT,RICH,31,388,3.57,3.4
NLA06608-2332,1,2007-08-09,-99.30406582,40.03137931,NE,HARLAN,318,779,14.29,1.1
NLA06608-2333,1,2007-07-31,-75.54742044,38.64382658,DE,SUSSEX,75,2311,68.88,1.06
NLA06608-2345,1,2007-08-16,-110.9481455,39.34812677,UT,EMERY,15,391,3.04,1.25
NLA06608-2354,1,2007-07-13,-71.45889451,41.70544844,RI,KENT,12,331,7.78,2.63
NLA06608-2372,1,2007-08-28,-109.2028896,36.27424052,AZ,APACHE,54,439,4.84,1
NLA06608-2379,1,2007-07-31,-105.7229345,41.24777405,WY,ALBANY,12,2076,1.42,5.05
NLA06608-2418,1,2007-07-11,-71.4790807,41.55977063,RI,WASHINGTON,35,366,24.32,1.12
NLA06608-2426,1,2007-09-27,-110.4842973,47.6347722,MT,CHOUTEAU,1697,25663,69.6,0.38
NLA06608-2429,1,2007-08-14,-111.0606041,40.34377825,UT,WASATCH,9,133,2.45,4.65
NLA06608-2438,1,2007-09-11,-119.5634013,42.06680514,OR,LAKE,636,1674,4.64,0.11
NLA06608-2450,1,2007-07-24,-124.1790441,43.63164375,OR,DOUGLAS,3,148,0.9,7.48
NLA06608-2453,1,2007-07-10,-116.2369826,41.80418482,NV,ELKO,283,765,4.59,0.3
NLA06608-2457,1,2007-08-23,-113.0490711,37.43723737,UT,WASHINGTON,16,314,3.69,2.35
NLA06608-2463,1,2007-07-19,-110.4849079,40.17547463,UT,DUCHESNE,6,183,1.58,5.25
NLA06608-2477,1,2007-06-26,-115.2249025,37.56936135,NV,LINCOLN,32,1238,1.83,1.2
NLA06608-2481,1,2007-08-01,-119.3927622,43.98862837,OR,GRANT,36,421,0.95,3.98
NLA06608-2492,1,2007-07-24,-89.66897642,34.47617113,MS,LAFAYETTE,33,337,19.36,0.86
NLA06608-2497,1,2007-07-17,-116.9701212,48.00821961,ID,BONNER,64,868,20.91,0.7
NLA06608-2507,1,2007-07-11,-86.05550077,40.07519519,IN,HAMILTON,34,1101,38.02,0.82
NLA06608-2513,1,2007-08-21,-122.5619208,47.13285576,WA,PIERCE,5,259,3.54,5.19
NLA06608-2523,1,2007-07-31,-85.42886396,41.34688657,IN,NOBLE,56,1259,13.5,0.79
NLA06608-2524,1,2007-09-14,-91.220466,31.95537014,LA,TENSAS,33,580,41.9,0.98
NLA06608-2565,1,2007-08-22,-81.22725223,28.32320111,FL,OSCEOLA,19,410,7.1,1.15
NLA06608-2566,1,2007-07-12,-71.79479768,41.37985994,RI,WASHINGTON,9,376,4.43,NA
NLA06608-2593,1,2007-07-26,-81.70713268,28.09210404,FL,POLK,41,1337,38.2,0.55
NLA06608-2629,1,2007-07-10,-81.27307172,28.84218233,FL,VOLUSIA,66,1188,27.16,0.5
NLA06608-2634,1,2007-07-30,-109.5249202,44.94116736,WY,PARK,16,278,1.17,NA
NLA06608-2640,1,2007-08-09,-100.7051997,40.36170146,NE,FRONTIER,48,1113,25.12,1
NLA06608-2644,1,2007-08-20,-85.24189644,39.07938034,IN,RIPLEY,121,1240,4.43,0.41
NLA06608-2655,1,2007-08-29,-109.1845335,40.72496185,UT,UINTAH,102,2286,29.46,1.65
NLA06608-2657,1,2007-09-13,-81.83272347,28.16663717,FL,POLK,6,488,20.6,NA
NLA06608-2663,1,2007-07-10,-95.35917721,29.20565727,TX,BRAZORIA,13,561,2.03,NA
NLA06608-2673,1,2007-09-18,-118.6850367,44.30658171,OR,GRANT,72,423,1.33,5.5
NLA06608-2685,1,2007-09-14,-110.9547924,40.68363702,UT,SUMMIT,7,169,2.43,2.45
NLA06608-2696,1,2007-07-26,-96.71956089,32.8366626,TX,DALLAS,75,733,41.76,0.75
NLA06608-2704,1,2007-09-11,-100.1852787,35.8844838,TX,HEMPHILL,105,1672,25.88,0.25
NLA06608-2708,1,2007-08-08,-86.49533079,39.54217646,IN,MORGAN,12,388,5.16,2.4
NLA06608-2714,1,2007-08-11,-104.1093535,43.82780189,WY,WESTON,8,216,9.07,3.85
NLA06608-2715,1,2007-08-17,-103.61424,41.99075603,NE,SCOTTS BLUFF,36,369,4.75,0.52
NLA06608-2726,1,2007-09-12,-121.7665432,43.71378677,OR,DESCHUTES,5,191,1.18,6.99
NLA06608-2740,1,2007-08-14,-98.90220683,41.29419937,NE,SHERMAN,121,359,11.37,0.65
NLA06608-2753,1,2007-08-30,-117.6889884,47.57068723,WA,SPOKANE,16,1496,3.39,2.67
NLA06608-2759,1,2007-08-30,-98.68391282,30.75592819,TX,LLANO,9,206,1.12,NA
NLA06608-2776,1,2007-10-16,-96.95936703,33.49584507,TX,COOKE,36,1144,13.86,0.79
NLA06608-2779,1,2007-07-18,-85.70517583,41.27976472,IN,KOSCIUSKO,21,713,6,1.85
NLA06608-2797,1,2007-06-28,-114.264347,37.90869352,NV,LINCOLN,24,664,2.02,2.13
NLA06608-2800,1,2007-09-25,-112.4771506,47.67808029,MT,TETON,11,235,2.41,4
NLA06608-2801,1,2007-08-01,-112.689224,42.08566286,ID,ONEIDA,36,339,6.82,0.35
NLA06608-2823,1,2007-09-05,-92.74143447,31.29345058,LA,RAPIDES,31,751,24.32,1.08
NLA06608-2824,1,2007-08-13,-98.66083463,41.76461732,NE,WHEELER,208,794,25.28,0.8
NLA06608-2831,1,2007-08-01,-85.7918613,34.14749294,AL,CHEROKEE,107,738,37.6,0.48
NLA06608-2833,1,2007-08-15,-120.164879,47.91880419,WA,CHELAN,16,640,3.06,4.39
NLA06608-2874,1,2007-09-26,-111.9632243,46.93083483,MT,LEWIS AND CLARK,76,487,3.94,4.2
NLA06608-2881,1,2007-09-21,-114.388,48.45509278,MT,FLATHEAD,1,50,0.89,6.95
NLA06608-2889,1,2007-07-18,-118.7179736,38.70359768,NV,MINERAL,577,1476,1.77,8.2
NLA06608-2891,1,2007-07-16,-85.98525778,41.23224913,IN,KOSCIUSKO,8,790,7.2,3
NLA06608-2916,1,2007-08-06,-87.11602237,38.21295517,IN,WARRICK,15,324,1.98,3.3
NLA06608-2924,1,2007-08-01,-101.3181565,32.23706223,TX,HOWARD,13,693,12.64,1.21
NLA06608-2954,1,2007-07-26,-111.6037333,44.02361323,ID,FREMONT,876,7684,136.66,1.58
NLA06608-2955,1,2007-06-28,-86.14384613,33.55680923,AL,ETOWAH,58,513,32.98,0.74
NLA06608-2972,1,2007-08-19,-100.649942,42.45325719,NE,CHERRY,347,5350,145,0.16
NLA06608-2987,1,2007-08-01,-86.36950208,41.67863226,IN,ST JOSEPH,29,1336,15.18,0.99
NLA06608-2996,1,2007-10-18,-98.7099336,33.9804795,TX,WICHITA,130,1440,16.64,0.28
NLA06608-3032,1,2007-10-17,-97.25082795,33.8415669,TX,COOKE,94,1543,44.93,0.29
NLA06608-3035,1,2007-07-25,-85.2868168,41.55099685,IN,LAGRANGE,7,738,3.25,3.65
NLA06608-3083,1,2007-08-06,-95.34226168,30.85367701,TX,HOUSTON,96,685,20.64,1.18
NLA06608-3096,1,2007-09-25,-96.14918065,32.11659958,TX,NAVARRO,17,559,9.87,2.49
NLA06608-3121,1,2007-08-07,-116.4623588,44.96452667,ID,ADAMS,46,455,14.64,1.55
NLA06608-3147,1,2007-08-21,-86.46356279,41.077101999999996,IN,FULTON,46,999,37.66,1.05
NLA06608-3153,1,2007-09-25,-122.81678,48.66028929,WA,SAN JUAN,1,116,1.5,7
NLA06608-3157,1,2007-07-11,-115.7987142,43.54942519,ID,ELMORE,8,70,2.21,2.3
NLA06608-3160,1,2007-08-15,-96.83981345,41.03691696,NE,LANCASTER,237,2655,271.44,0.27
NLA06608-3169,1,2007-08-21,-80.86630109,26.93623169,FL,OKEECHOBEE,105,1200,54.43,0.45
NLA06608-3228,1,2007-10-09,-99.68261832,32.57024595,TX,JONES,74,658,8.7,0.82
NLA06608-3265,1,2007-09-05,-117.40861,48.05647979,WA,PEND OREILLE,7,338,1.77,6.27
NLA06608-3303,1,2007-10-17,-98.37720987,29.24614674,TX,BEXAR,81,1535,35.42,0.79
NLA06608-3313,1,2007-08-16,-111.8362486,42.12319331,ID,FRANKLIN,41,316,7.73,0.97
NLA06608-3320,1,2007-09-17,-94.76570179,34.9019537,OK,LE FLORE,88,612,19.07,0.4
NLA06608-3329,1,2007-07-19,-116.824496,48.45741132,ID,BONNER,10,374,3.7,2.88
NLA06608-3480,1,2007-08-14,-97.08993955,34.62968086,OK,MURRAY,88,1612,38.88,0.59
NLA06608-3484,1,2007-08-20,-100.6121255,42.62695121,NE,CHERRY,180,4319,83.5,0.16
NLA06608-3608,1,2007-08-16,-97.23610354,41.97536219,NE,STANTON,191,1821,52.85,0.69
NLA06608-3616,1,2007-07-30,-99.92247803,36.05807999,OK,ELLIS,15,455,1.69,1.3
NLA06608-3644,1,2007-08-15,-102.5219427,41.78762942,NE,GARDEN,58,2063,19.2,0.52
NLA06608-3656,1,2007-08-22,-99.29106061,42.41646632,NE,ROCK,471,5813,428,0.23
NLA06608-3660,1,2007-08-23,-96.77970247,40.15668653,NE,GAGE,1329,2263,5.25,0.05
NLA06608-3698,1,2007-07-19,-71.68494167,41.89097393,RI,PROVIDENCE,6,300,4.59,2.56
NLA06608-3846,1,2007-07-12,-71.66573009,41.39410498,RI,WASHINGTON,3,110,0.9,4.79
NLA06608-3890,1,2007-07-11,-71.79802709,41.58007689,RI,WASHINGTON,1,98,2.77,3.9
NLA06608-3911,1,2007-09-17,-92.4431037,30.53713917,LA,EVANGELINE,43,643,29.12,0.73
NLA06608-4056,1,2007-07-05,-98.62856545,36.14305845,OK,DEWEY,75,651,8.08,1
NLA06608-4064,1,2007-07-31,-102.875142,36.84862392,OK,CIMARRON,47,770,10.19,0.9
NLA06608-4206,1,2007-09-19,-97.41304704,35.92127588,OK,LOGAN,61,1627,66.96,0.62
NLA06608-4252,1,2007-08-23,-72.91848548,43.49623503,VT,RUTLAND,1,188,1.47,4.95
NLA06608-4320,1,2007-09-05,-96.85512233,36.74858993,OK,KAY,177,1871,2.5,0.8
NLA06608-4382,1,2007-09-10,-97.77308405,34.72903354,OK,GRADY,35,571,12.08,0.75
NLA06608-4413,1,2007-07-18,-71.76906052,41.92028511,RI,PROVIDENCE,8,251,2.56,2.7
NLA06608-4414,1,2007-08-29,-95.16322141,34.8862297,OK,LATIMER,38,480,12.1,0.88
NLA06608-4440,1,2007-09-04,-97.03497789,36.73591623,OK,KAY,38,803,34.2,0.83
NLA06608-4472,1,2007-08-07,-97.67930222,35.49774222,OK,CANADIAN,282,816,29.4,0.3
NLA06608-4504,1,2007-06-05,-96.04132091,36.81228138,OK,OSAGE,32,680,18.51,0.88
NLA06608-4610,1,2007-07-24,-96.98139727,34.48858411,OK,MURRAY,22,426,5.38,1.62
NLA06608-4643,1,2007-08-21,-96.19116581,36.5147867,OK,OSAGE,19,557,13.83,1.15
NLA06608-4650,1,2007-09-13,-92.44501566,32.71459999,LA,UNION,43,681,26.08,0.79
NLA06608-4659,1,2007-09-19,-98.70752087,35.39706727,OK,WASHITA,90,1247,76.32,0.37
NLA06608-4686,1,2007-09-12,-92.74402455,31.37317275,LA,RAPIDES,84,446,16.8,0.38
NLA06608-4698,1,2007-09-16,-93.48976305,32.09045845,LA,RED RIVER,142,1333,104.4,0.63
NLA06608-4828,1,2007-09-04,-97.67551876,34.96590119,OK,GRADY,24,421,4.62,1.23
NLA06608-4929,1,2007-07-17,-96.60527506,34.58938281,OK,PONTOTOC,121,954,38.3,0.94
NLA06608-9999,1,2007-07-31,-71.651789,44.64231,VT,ESSEX,1,149,1.02,8.55
NLA06608-ACAD_LAKES_0435,1,2007-08-01,-68.268509,44.40788,ME,HANCOCK,10,151,1.04,NA
NLA06608-ALPS-1218,1,2007-08-03,-67.881905,44.836404,ME,WASHINGTON,14,414,1.09,1.04
NLA06608-ALSC:020149,1,2007-09-11,-74.401491,44.348811,NY,FRANKLIN,5,191,3.27,3.7
NLA06608-ELS:1C2-032,1,2007-07-12,-71.428103,43.296358,NH,MERRIMACK,11,264,14.18,1.28
NLA06608-ELS:1C3-003,1,2007-08-15,-69.927263,45.653548,ME,SOMERSET,9,256,2.72,3.77
NLA06608-ELS:1D1-035,1,2007-07-25,-70.617682,41.848175,MA,PLYMOUTH,23,444,31.36,1.52
NLA06608-ELS:1D2-087,1,2007-07-27,-72.092123,42.323799,MA,WORCESTER,35,532,16.8,0.86
NLA06608-ELS:1E1-052,1,2007-08-07,-68.209171,45.207071,ME,HANCOCK,10,130,1.67,4.5
NLA06608-ELS:1E1-096,1,2007-08-09,-68.077773,45.219001,ME,HANCOCK,9,236,2.91,2.06
NLA06608-ELS:1E1-128,1,2007-08-10,-68.429254,44.849882,ME,HANCOCK,8,394,3.15,2.46
NLA06608-ELS:1E2-027,1,2007-08-14,-69.889944,45.799297,ME,SOMERSET,28,629,7.94,NA
NLA06608-ELS:1E3-002,1,2007-08-07,-68.35754,46.375055,ME,AROOSTOOK,14,731,11.41,NA
NLA06608-ELS:1E3-012,1,2007-08-28,-68.871133,46.944636,ME,AROOSTOOK,4,161,1.17,5.28
NLA06608-ELS:1E3-071,1,2007-08-08,-68.594335,46.345672,ME,PENOBSCOT,17,807,4.82,NA
NLA06608-ELS:2B2-008,1,2007-08-21,-88.759164,46.994934,MI,HOUGHTON,8,299,3.97,1.39
NLA06608-ELS:2C2-048,1,2007-08-24,-88.794652,45.500526,WI,FOREST,8,593,5.64,2.79
NLA06608-ELS:2C3-018,1,2007-08-25,-89.552886,46.138603,WI,VILAS,10,328,5.45,1.94
NLA06608-ELS:2D3-008,1,2007-08-10,-93.880503,47.122809,MN,CASS,13,722,1.11,5.05
NLA06608-EMAP:ME011L,1,2007-09-14,-69.222522,45.748209,ME,PISCATAQUIS,13,246,4.35,2.5
NLA06608-EMAP:ME012L,1,2007-08-28,-68.89108,46.962321,ME,AROOSTOOK,1,129,0.69,5.64
NLA06608-EMAP:ME254L,1,2007-09-05,-69.056968,46.353306,ME,PISCATAQUIS,5,204,1.75,3.92
NLA06608-EMAP:ME263L,1,2007-08-09,-67.997826,45.127611,ME,WASHINGTON,11,314,1.84,1.58
NLA06608-EMAP:ME518L,1,2007-08-10,-67.922498,45.354469,ME,PISCATAQUIS,7,156,2.06,4.59
NLA06608-FL:107895579,1,2007-08-01,-81.441106,29.080057,FL,VOLUSIA,33,985,10.53,1.35
NLA06608-FL:16674741,1,2007-08-03,-81.95812,29.839332,FL,CLAY,8,98,1.54,3.4
NLA06608-FL:18261987,1,2007-08-05,-82.409214,30.118409,FL,UNION,20,474,5.28,1.25
NLA06608-FL:99324403,1,2007-08-04,-82.834414,30.211239,FL,SUWANNEE,24,801,18.72,1.25
NLA06608-FL:99344895,1,2007-08-06,-82.913722,30.247737,FL,SUWANNEE,166,1531,15.89,NA
NLA06608-IN:646,1,2007-07-31,-85.392434,41.56235,IN,LAGRANGE,4,2089,1.01,1.7
NLA06608-MI:7007,1,2007-08-01,-84.056809,42.398646,MI,WASHTENAW,9,828,2.75,2.84
NLA06608-MN:03-0029,1,2007-08-08,-95.181199,47.062841,MN,BECKER,9,779,2.67,3.75
NLA06608-MN:06-0002,1,2007-09-06,-96.135669,45.33182,MN,BIG STONE,271,2475,42.26,0.55
NLA06608-MN:11-0102,1,2007-08-11,-94.040807,46.928377,MN,CASS,9,447,2.47,3.65
NLA06608-MN:15-0010,1,2007-08-09,-95.21841,47.189468,MN,CLEARWATER,9,529,2.87,3.91
NLA06608-MN:22-0074,1,2007-09-11,-94.078777,43.8192,MN,FARIBAULT,62,1175,47.95,0.6
NLA06608-MN:49-0140,1,2007-09-24,-94.636969,45.813111,MN,MORRISON,7,595,1.21,6.35
NLA06608-MN:51-0063,1,2007-09-05,-95.767078,44.15457,MN,MURRAY,140,1174,25.12,0.25
NLA06608-MN:56-0306,1,2007-09-17,-95.748497,46.292544,MN,OTTER TAIL,8,540,5.39,2.45
NLA06608-MN:61-0037,1,2007-09-25,-95.364908,45.490155,MN,POPE,19,835,7,2.55
NLA06608-MN:74-0023,1,2007-09-12,-93.349755,43.891574,MN,STEELE,34,880,13.54,1.43
NLA06608-MN:75-0200,1,2007-09-07,-96.074082,45.528235,MN,STEVENS,446,2647,15.43,0.35
NLA06608-MN:77-0019,1,2007-09-16,-94.670256,45.768831,MN,TODD,17,1065,12.78,2.18
NLA06608-MN:87-0030,1,2007-09-08,-95.532331,44.684008,MN,STEELE,82,1987,40.03,0.4
NLA06608-NELP-0253,1,2007-08-08,-68.094876,45.152049,ME,HANCOCK,4,183,1.04,5.92
NLA06608-NELP-0955,1,2007-08-29,-68.856993,46.965959,ME,AROOSTOOK,1,118,0.82,6.07
NLA06608-NELP-1041,1,2007-08-01,-69.111684,44.36243,ME,WALDO,9,286,5.31,NA
NLA06608-NELP-1330,1,2007-08-28,-68.843,46.9518,ME,AROOSTOOK,1,168,0.82,6.91
NLA06608-NELP-2155,1,2007-08-29,-68.84294,46.961173,ME,AROOSTOOK,1,146,0.73,7.37
NLA06608-NELP-3355,1,2007-08-29,-68.853062,46.944789,ME,AROOSTOOK,4,216,0.89,NA
NLA06608-NELP-3586,1,2007-08-30,-69.077222,45.752816,ME,PISCATAQUIS,3,138,1.08,6.22
NLA06608-NH250L,1,2007-07-26,-71.127398,43.840363,NH,CARROLL,12,292,3.99,2.65
NLA06608-NH4912,1,2007-08-09,-72.01599,43.023373,NH,HILLSBOROUGH,4,177,0.78,7.15
NLA06608-NV:2,1,2007-09-21,-115.394285,40.592943,NV,ELKO,11,124,1.29,3.1
NLA06608-NV:3,1,2007-09-20,-115.087017,41.026475,NV,ELKO,7,223,3.42,NA
NLA06608-NV:4,1,2007-09-17,-115.126627,37.301656,NV,LINCOLN,154,3225,28,0.08
NLA06608-OH:19,1,2007-09-06,-84.269652,39.707435,OH,MONTGOMERY,17,500,5.89,1.9
NLA06608-OH:22,1,2007-09-05,-83.032824,40.080755,OH,FRANKLIN,3,244,1,5.68
NLA06608-R10BULLTR,1,2007-08-16,-115.253959,44.299985,ID,BOISE,3,88,0.7,8.25
NLA06608-R10CAPEHO,1,2007-08-14,-115.130707,44.412769,ID,CUSTER,10,318,0.68,NA
NLA06608-R10CHARLT,1,2007-08-08,-121.972108,43.7447,OR,DESCHUTES,1,136,0.2,17.1
NLA06608-R10COUNCI,1,2007-08-22,-121.629648,46.266753,WA,SKAMANIA,1,39,0.68,9.25
NLA06608-R10DEERLA,1,2007-08-09,-121.893625,43.819275,OR,DESCHUTES,4,191,0.65,NA
NLA06608-R10FISHLA,1,2007-08-12,-118.647249,42.736902,OR,HARNEY,13,279,7.79,2.9
NLA06608-R10FOURMI,1,2007-08-07,-122.258622,42.46935,OR,KLAMATH,4,143,2.74,18.1
NLA06608-R10RAINYL,1,2007-08-19,-120.737873,48.501411,WA,CHELAN,3,56,0.53,13
NLA06608-R10SQUAWL,1,2007-08-24,-123.020334,42.040047,OR,JACKSON,4,150,0.66,9.25
NLA06608-R10ULAKE,1,2007-08-21,-123.074122,47.427764,WA,MASON,10,312,6.04,2.15
NLA06608-R10YELLOW,1,2007-08-15,-114.875721,44.000621,ID,CUSTER,3,36,0.38,18.25
NLA06608-R31,1,2007-07-30,-76.98388,39.39897,MD,CARROLL,8,1103,2.87,4.2
NLA06608-R314,1,2007-08-15,-78.637447,37.394115,VA,BUCKINGHAM,11,230,3.97,3.26
NLA06608-R315,1,2007-08-28,-79.227717,38.328785,VA,AUGUSTA,4,101,2.48,4.21
NLA06608-R318,1,2007-08-16,-79.819212,37.315287,VA,BEDFORD,8,235,5.34,3.94
NLA06608-R319,1,2007-09-18,-77.1802,37.344722,VA,CHARLES (CITY),37,531,12.11,0.46
NLA06608-R32,1,2007-08-01,-79.142764,39.510833,MD,GARRETT,3,505,1.68,6.9
NLA06608-R322,1,2007-09-04,-80.079728,36.807826,VA,PATRICK,7,219,2.03,3.11
NLA06608-R323,1,2007-09-19,-76.649661,36.841537,VA,SUFFOLK (CITY),26,629,15.96,1.05
NLA06608-R324,1,2007-09-20,-76.830652,37.357963,VA,JAMES CITY,6,366,4.67,2.4
NLA06608-R326,1,2007-09-18,-76.906472,37.43234,VA,JAMES CITY,31,740,27.52,0.65
NLA06608-R328,1,2007-09-06,-80.87554,37.042659,VA,PULASKI,9,277,2.24,5.81
NLA06608-R333,1,2007-09-17,-76.707685,37.303695,VA,YORK,22,366,8.48,1.47
NLA06608-R334,1,2007-08-08,-78.156495,39.514306,WV,BERKELEY,12,311,8.48,1.65
NLA06608-R336,1,2007-08-21,-80.953739,37.974885,WV,FAYETTE,4,169,12,1.03
NLA06608-R34,1,2007-08-28,-78.682256,40.270346,PA,CAMBRIA,3,309,2.51,3.33
NLA06608-R5:KATHRYN,1,2007-08-22,-88.724713,46.381969,MI,IRON,7,405,4.1,2.34
NLA06608-R5:OTTAWA,1,2007-08-23,-88.76232,46.083918,MI,IRON,3,148,1.05,7.95
NLA06608-R7101,1,2007-09-18,-100.668437,42.526174,NE,CHERRY,363,6880,118.4,0.15
NLA06608-R7103,1,2007-09-18,-100.688615,42.578207,NE,CHERRY,839,9359,77.2,0.45
NLA06608-R7104,1,2007-09-18,-100.717256,42.526966,NE,CHERRY,1719,4166,112.46,NA
NLA06608-R7106,1,2007-09-20,-96.583853,40.630491,NE,LANCASTER,318,1281,30.67,0.53
NLA06608-R715,1,2007-08-30,-92.4014,42.535944,IA,BLACK HAWK,54,1205,70.27,0.55
NLA06608-R716,1,2007-08-31,-92.388594,42.479229,IA,BLACK HAWK,23,544,15.01,1.35
NLA06608-R723,1,2007-08-23,-96.798912,37.09209,KS,COWLEY,20,380,13.87,1.45
NLA06608-R728,1,2007-08-15,-95.979428,38.791331,KS,WABAUNSEE,19,333,21.28,0.95
NLA06608-R730,1,2007-07-03,-96.42668,38.522226,KS,MORRIS,37,513,16.32,0.53
NLA06608-R733,1,2007-07-02,-94.68362,38.50443,KS,MIAMI,62,637,14.26,0.88
NLA06608-R736,1,2007-07-12,-95.815771,38.494153,KS,OSAGE,26,389,11.04,1.8
NLA06608-R746,1,2007-07-16,-94.8906,38.1274,KS,LINN,37,408,17.28,1
NLA06608-R750,1,2007-07-18,-96.410034,39.469161,KS,POTTAWATOMIE,80,983,35.86,0.7
NLA06608-R759,1,2007-07-26,-98.568716,38.948542,KS,RUSSELL,17,611,4.78,1.55
NLA06608-R764,1,2007-08-24,-96.195593,37.232374,KS,CHAUTAUQUA,14,350,7.98,1.3
NLA06608-R767,1,2007-08-02,-90.917282,37.726925,MO,IRON,10,203,0.79,3
NLA06608-R769,1,2007-08-01,-91.054054,36.636707,MO,RIPLEY,8,316,1.49,3.9
NLA06608-R770,1,2007-08-02,-91.261113,37.386994,MO,SHANNON,5,223,2.7,3
NLA06608-R772,1,2007-09-07,-91.480991,38.428911,MO,GASCONADE,16,351,7.6,1.25
NLA06608-R775,1,2007-09-06,-90.53646,38.228213,MO,JEFFERSON,10,326,5.36,2.4
NLA06608-R784,1,2007-09-20,-103.116433,42.458365,NE,DAWES,31,789,6.75,0.95
NLA06608-R788,1,2007-09-18,-100.7275,42.5433,NE,CHERRY,650,3172,7.28,NA
NLA06608-R791,1,2007-09-19,-102.446229,41.779509,NE,GARDEN,2147,25638,101.25,0.15
NLA06608-R792,1,2007-09-19,-102.436342,41.731631,NE,GARDEN,393,8647,143.6,0.15
NLA06608-R796,1,2007-09-19,-102.397543,41.734746,NE,GARDEN,495,7925,99.52,0.21
NLA06608-TX:10,1,2007-09-11,-98.408858,30.751822,TX,BURNET,63,767,33.55,1
NLA06608-TX:14,1,2007-09-10,-98.408858,30.751822,TX,BURNET,16,468,8.16,1.65
NLA06608-TX:15,1,2007-09-08,-98.99129,32.441373,TX,EASTLAND,14,484,3.63,1.45
NLA06608-TX:19,1,2007-09-15,-95.293713,31.917152,TX,CHEROKEE,72,1069,8.43,1.55
NLA06608-TX:22,1,2007-09-17,-94.464052,32.044428,TX,PANOLA,11,258,109.83,0.55
NLA06608-TX:27,1,2007-09-06,-100.50987,31.49062,TX,TOM GREEN,69,933,12.58,0.8
NLA06608-TX:29,1,2007-09-13,-97.609119,31.003513,TX,BELL,8,308,3.89,2.55
NLA06608-TX:30,1,2007-09-18,-94.332424,33.249977,TX,CASS,181,1433,80.1,0.45
NLA06608-TX:5,1,2007-09-05,-98.389969,28.503123,TX,LIVE OAK,74,683,15.12,1.88
NLA06608-WI:LOWES,1,2007-07-11,-88.311533,43.218375,WI,WASHINGTON,67,1566,149.04,1.4
NLA06608-WI:SY,1,2007-07-17,-87.943978,43.958982,WI,MANITOWOC,49,905,32.9,1.25
